허가구역명,장소유형,시도명,시군구명,소재지도로명주소,소재지지번주소,위도,경도,푸드트럭운영대수,허가구역사용료,허가구역운영시작일자,허가구역운영종료일자,허가구역휴무일,허가구역평일운영시작시각,허가구역평일운영종료시각,허가구역주말운영시작시각,허가구역주말운영종료시각,1월운영시작시각,1월운영종료시각,2월운영시작시각,2월운영종료시각,3월운영시작시각,3월운영종료시각,4월운영시작시각,4월운영종료시각,5월운영시작시각,5월운영종료시각,6월운영시작시각,6월운영종료시각,7월운영시작시각,7월운영종료시각,8월운영시작시각,8월운영종료시각,9월운영시작시각,9월운영종료시각,10월운영시작시각,10월운영종료시각,11월운영시작시각,11월운영종료시각,12월운영시작시각,12월운영종료시각,판매제한품목,관리기관명,관리기관전화번호,데이터기준일자,제공기관코드,제공기관명
독봉산웰빙공원,04,16,거제시,경상남도 거제시 고현천로 181,,34.8792123724,128.633247557,5,119595/59730,2016-12-12,2021-03-04,※ 사정에 따라 다름,00:00,24:00,00:00,24:00,,,,,,,,,,,,,,,,,,,,,,,,,,거제시청,055-639-3984,2018-08-03,5370000,경상남도 거제시
지세포 선창 낚시공원,04,16,거제시,경상남도 거제시 일운면 지세포해안로 258,,34.8360721695,128.717363174,2,30605/61210,2016-12-12,2019-11-06,※ 사정에 따라 다름,00:00,24:00,00:00,24:00,,,,,,,,,,,,,,,,,,,,,,,,,,거제시청,055-639-3984,2018-08-03,5370000,경상남도 거제시
지세포친수공간,04,16,거제시,경상남도 거제시 일운면 지세포해안로15-44,,34.8391864976,128.701236471,4,40830,2018-04-10,2021-03-04,※ 사정에 따라 다름,00:00,24:00,00:00,24:00,,,,,,,,,,,,,,,,,,,,,,,,,,거제시청,055-639-3984,2018-08-03,5370000,경상남도 거제시
거제시보건소,99,16,거제시,경상남도 거제시 수양로 506,,34.8916882715,128.636561602,4,116540,2018-04-10,2021-03-04,※ 사정에 따라 다름,00:00,24:00,00:00,24:00,,,,,,,,,,,,,,,,,,,,,,,,,,거제시청,055-639-3984,2018-08-03,5370000,경상남도 거제시
거제시청,99,16,거제시,경상남도 거제시 계룡로 125,,34.8805288283,128.620814279,4,103570,2018-04-10,2021-03-04,※ 사정에 따라 다름,00:00,24:00,00:00,24:00,,,,,,,,,,,,,,,,,,,,,,,,,,거제시청,055-639-3984,2018-08-03,5370000,경상남도 거제시
만안구청,08,09,안양시,경기도 안양시 만안구 안양로128,,37.3866427218,126.932406606,1,"""1,317,250""",2018-05-30,2019-05-29,토요일+일요일+공휴일,09:00,18:00,00:00,00:00,,,,,,,,,,,,,,,,,,,,,,,,,,안양시,031-8045-2208,2018-08-09,3830000,경기도 안양시
안양종합운동장,03,09,안양시,경기도 안양시 동안구 평촌대로389,,37.4051455362,126.945234308,6,매출액 15(VAT별도),2018-03-11,2018-09-30,평일,00:00,00:00,19:00,22:30,,,,,,,,,,,,,,,,,,,,,,,,,,안양시,031-8045-2208,2018-08-09,3830000,경기도 안양시
장흥유원지,01,09,양주시,경기도 양주시 장흥면 권율로 184,경기도 양주시 장흥면 석현리 392번지 7호 (1-2),37.7302489,126.949199,1,"""111,000""",2016-08-29,2018-08-28,연중무휴,00:00,00:00,00:00,00:00,,,,,,,,,,,,,,,,,,,,,,,,,,양주시 민원봉사과,031-8082-5292,2018-08-01,5590000,경기도 양주시
장흥유원지,01,09,양주시,경기도 양주시 장흥면 권율로 184,경기도 양주시 장흥면 석현리 392번지 7호 (1-3),37.7302489,126.949199,1,"""61,000""",2016-08-29,2018-08-28,연중무휴,00:00,00:00,00:00,00:00,,,,,,,,,,,,,,,,,,,,,,,,,,양주시 민원봉사과,031-8082-5292,2018-08-01,5590000,경기도 양주시
장흥유원지,01,09,양주시,경기도 양주시 장흥면 권율로 184,경기도 양주시 장흥면 석현리 392번지 7호 (2-1),37.7302489,126.949199,1,"""40,000""",2016-08-29,2018-08-28,연중무휴,00:00,00:00,00:00,00:00,,,,,,,,,,,,,,,,,,,,,,,,,,양주시 민원봉사과,031-8082-5292,2018-08-01,5590000,경기도 양주시
장흥유원지,01,09,양주시,경기도 양주시 장흥면 권율로 184,경기도 양주시 장흥면 석현리 392번지 7호 (A-2),37.7302489,126.949199,1,"""129,140""",2016-11-15,2018-11-14,연중무휴,00:00,00:00,00:00,00:00,,,,,,,,,,,,,,,,,,,,,,,,,,양주시 민원봉사과,031-8082-5292,2018-08-01,5590000,경기도 양주시
장흥유원지,01,09,양주시,경기도 양주시 장흥면 권율로 184,경기도 양주시 장흥면 석현리 392번지 7호 (A-3),37.7302489,126.949199,1,"""129,140""",2016-11-15,2018-11-14,연중무휴,00:00,00:00,00:00,00:00,,,,,,,,,,,,,,,,,,,,,,,,,,양주시 민원봉사과,031-8082-5292,2018-08-01,5590000,경기도 양주시
장흥유원지,01,09,양주시,경기도 양주시 장흥면 권율로 184,경기도 양주시 장흥면 석현리 392번지 7호 (A-4),37.7302489,126.949199,1,"""129,140""",2016-11-15,2018-11-14,연중무휴,00:00,00:00,00:00,00:00,,,,,,,,,,,,,,,,,,,,,,,,,,양주시 민원봉사과,031-8082-5292,2018-08-01,5590000,경기도 양주시
장흥유원지,01,09,양주시,경기도 양주시 장흥면 권율로 184,경기도 양주시 장흥면 석현리 392번지 7호 (A-6),37.7302489,126.949199,1,"""129,140""",2016-11-15,2018-11-14,연중무휴,00:00,00:00,00:00,00:00,,,,,,,,,,,,,,,,,,,,,,,,,,양주시 민원봉사과,031-8082-5292,2018-08-01,5590000,경기도 양주시
원주종합체육관,03,10,없음,강원도 원주시 서원대로 281,,37.3390611515,127.941916293,,기간내 131220,2017-10-14,2018-03-13,홈경기일 27일만 운영,17:00,22:00,15:00,20:00,,,,,,,,,,,,,,,,,,,,,,,,,,원주시 체육시설사업소,033-737-4302,2018-08-20,4190000,강원도 원주시
푸드트럭존,99,01,서초구,서울특별시 서초구 서초동 1318-8,서울특별시 서초구 서초동 1318-8,37.4968662,127.0246298,17,1622500,2017-01-01,2017-12-31,연중무휴,12:00,23:59,12:00,23:59,12:00,23:59,12:00,23:59,12:00,23:59,12:00,23:59,12:00,23:59,12:00,23:59,12:00,23:59,12:00,23:59,12:00,23:59,12:00,23:59,12:00,23:59,12:00,23:59,,서초구,02-2155-6950,2018-06-28,3210000,서울특별시 서초구
성모병원사거리,99,01,서초구,서울특별시 서초구 반포동 123,서울특별시 서초구 반포동 123,37.5029667,127.0028635,1,319000,2017-01-01,2017-12-31,연중무휴,12:00,23:59,12:00,23:59,12:00,23:59,12:00,23:59,12:00,23:59,12:00,23:59,12:00,23:59,12:00,23:59,12:00,23:59,12:00,23:59,12:00,23:59,12:00,23:59,12:00,23:59,12:00,23:59,,서초구,02-2155-6950,2018-06-28,3210000,서울특별시 서초구
양재역 1번,99,01,서초구,서울특별시 서초구 서초동 1366-12,서울특별시 서초구 서초동 1366-12,37.4846867,127.0308908,1,855800,2017-01-01,2017-12-31,연중무휴,12:00,23:59,12:00,23:59,12:00,23:59,12:00,23:59,12:00,23:59,12:00,23:59,12:00,23:59,12:00,23:59,12:00,23:59,12:00,23:59,12:00,23:59,12:00,23:59,12:00,23:59,12:00,23:59,,서초구,02-2155-6950,2018-06-28,3210000,서울특별시 서초구
양재역 5번,99,01,서초구,서울특별시 서초구 양재동 12-3,서울특별시 서초구 양재동 12-3,37.4843163,127.0329727,2,921800,2017-01-01,2017-12-31,연중무휴,12:00,23:59,12:00,23:59,12:00,23:59,12:00,23:59,12:00,23:59,12:00,23:59,12:00,23:59,12:00,23:59,12:00,23:59,12:00,23:59,12:00,23:59,12:00,23:59,12:00,23:59,12:00,23:59,,서초구,02-2155-6950,2018-06-28,3210000,서울특별시 서초구
매헌역,99,01,서초구,서울특별시 서초구 양재동 327,서울특별시 서초구 양재동 327,37.4687298,127.0381687,1,344300,2017-01-01,2017-12-31,연중무휴,12:00,23:59,12:00,23:59,12:00,23:59,12:00,23:59,12:00,23:59,12:00,23:59,12:00,23:59,12:00,23:59,12:00,23:59,12:00,23:59,12:00,23:59,12:00,23:59,12:00,23:59,12:00,23:59,,서초구,02-2155-6950,2018-06-28,3210000,서울특별시 서초구
금강제화,99,01,서초구,서울특별시 서초구 서초동 1309-8,서울특별시 서초구 서초동 1309-8,37.5018163,127.0224161,1,847000,2017-01-01,2017-12-31,연중무휴,12:00,23:59,12:00,23:59,12:00,23:59,12:00,23:59,12:00,23:59,12:00,23:59,12:00,23:59,12:00,23:59,12:00,23:59,12:00,23:59,12:00,23:59,12:00,23:59,12:00,23:59,12:00,23:59,,서초구,02-2155-6950,2018-06-28,3210000,서울특별시 서초구
반포쇼핑타운4동,99,01,서초구,서울특별시 서초구 잠원동 69-2,서울특별시 서초구 잠원동 69-2,37.5065026,127.0026432,2,515900,2017-01-01,2017-12-31,연중무휴,12:00,23:59,12:00,23:59,12:00,23:59,12:00,23:59,12:00,23:59,12:00,23:59,12:00,23:59,12:00,23:59,12:00,23:59,12:00,23:59,12:00,23:59,12:00,23:59,12:00,23:59,12:00,23:59,,서초구,02-2155-6950,2018-06-28,3210000,서울특별시 서초구
남부터미널,99,01,서초구,서울특별시 서초구 서초동 1446-1,서울특별시 서초구 서초동 1446-1,37.4842081,127.0132047,1,412500,2017-01-01,2017-12-31,연중무휴,12:00,23:59,12:00,23:59,12:00,23:59,12:00,23:59,12:00,23:59,12:00,23:59,12:00,23:59,12:00,23:59,12:00,23:59,12:00,23:59,12:00,23:59,12:00,23:59,12:00,23:59,12:00,23:59,,서초구,02-2155-6950,2018-06-28,3210000,서울특별시 서초구
서대문지역자활썬터,99,01,서대문구,서울특별시 서대문구 연희로11마길 86-77 자활사업단 1층,서울특별시 서대문구 연희동 188-47 자활사업단,37.5725749006,126.926293695,1,무상,2018-04-25,2100-12-31,"""일요일,공휴일""",09:30,17:00,09:30,17:00,09:30,16:00,09:30,16:00,09:30,17:00,09:30,17:00,09:30,17:00,09:30,17:00,09:30,17:00,09:30,17:00,09:30,17:00,09:30,17:00,09:30,16:00,09:30,16:00,,서대문구청,02-330-8951,2018-08-10,3120000,서울특별시 서대문구
남항대교 하부,08,02,영도구,,부산광역시 영도구 영선동 4가 181-71,,,2,"""382,360""",2016-12-26,2018-12-25,연중무휴,10:00,22:00,10:00,22:00,10:00,22:00,10:00,22:00,10:00,22:00,10:00,22:00,10:00,22:00,10:00,22:00,10:00,22:00,10:00,22:00,10:00,22:00,10:00,22:00,10:00,22:00,10:00,22:00,,영도구청,051-419-4653,2018-07-31,3280000,부산광역시 영도구
솔오름전망대,99,17,서귀포시,제주특별자치도 서귀포시 동홍동 2150-2 앞 도로 (2150-1),제주특별자치도 서귀포시 동홍동 2150-2 앞 도로 (2150-1),33.2914653621,126.555862879,1,연79000원,2017-03-24,2019-02-28,연중무휴,00:00,24:00,00:00,24:00,,,,,,,,,,,,,,,,,,,,,,,,,,서귀포보건소,064-760-2421,2018-07-31,6520000,제주특별자치도 서귀포시
솔오름전망대,99,17,서귀포시,제주특별자치도 서귀포시 동홍동 2150-2 앞(도로(2150-1),제주특별자치도 서귀포시 동홍동 2150-2 앞(도로(2150-1),33.2914653621,126.555862879,1,연79000원,2017-03-28,2019-02-28,연중무휴,00:00,24:00,00:00,24:00,,,,,,,,,,,,,,,,,,,,,,,,,,서귀포보건소,064-760-2421,2018-07-31,6520000,제주특별자치도 서귀포시
솔오름전망대,99,17,서귀포시,제주특별자치도 서귀포시 동홍동 2150-2 앞 도로(2150-1),제주특별자치도 서귀포시 동홍동 2150-2 앞 도로(2150-1),33.2914653621,126.555862879,1,연79000원,2017-04-04,2019-02-28,연중무휴,00:00,24:00,00:00,24:00,,,,,,,,,,,,,,,,,,,,,,,,,,서귀포보건소,064-760-2421,2018-07-31,6520000,제주특별자치도 서귀포시
남조로 사려니숲길입구,99,17,서귀포시,제주특별자치도 서귀포시 표선면 가시리 산 158-4,제주특별자치도 서귀포시 표선면 가시리 산 158-4,33.3945695524,126.685263274,1,무료,2017-03-24,2019-03-23,연중무휴,00:00,24:00,00:00,24:00,,,,,,,,,,,,,,,,,,,,,,,,,,서귀포보건소,064-760-2421,2018-07-31,6520000,제주특별자치도 서귀포시
남조로 사려니숲길입구,99,17,서귀포시,제주특별자치도 서귀포시 표선면 가시리 산 158-4,제주특별자치도 서귀포시 표선면 가시리 산 158-4,33.3945695524,126.685263274,1,무료,2017-04-03,2019-03-23,연중무휴,00:00,24:00,00:00,24:00,,,,,,,,,,,,,,,,,,,,,,,,,,서귀포보건소,064-760-2421,2018-07-31,6520000,제주특별자치도 서귀포시
남조로 사려니숲길입구,99,17,서귀포시,제주특별자치도 서귀포시 표선면 가시리 산 158-4,제주특별자치도 서귀포시 표선면 가시리 산 158-4,33.3945695524,126.685263274,1,무료,2017-03-30,2019-03-29,연중무휴,00:00,24:00,00:00,24:00,,,,,,,,,,,,,,,,,,,,,,,,,,서귀포보건소,064-760-2421,2018-07-31,6520000,제주특별자치도 서귀포시
남조로 사려니숲길입구,99,17,서귀포시,제주특별자치도 서귀포시 표선면 가시리 산 158-4,제주특별자치도 서귀포시 표선면 가시리 산 158-4,33.3945695524,126.685263274,1,무료,2017-04-13,2019-04-06,연중무휴,00:00,24:00,00:00,24:00,,,,,,,,,,,,,,,,,,,,,,,,,,서귀포보건소,064-760-2421,2018-07-31,6520000,제주특별자치도 서귀포시
제주컨벤션센터광장,02,17,서귀포시,제주특별자치도 서귀포시 중문동 2503,제주특별자치도 서귀포시 중문동 2503,33.2350331458,126.432323903,1,무료,2015-06-09,2018-04-30,연중무휴,00:00,24:00,00:00,24:00,,,,,,,,,,,,,,,,,,,,,,,,,,서귀포보건소,064-760-2421,2018-07-31,6520000,제주특별자치도 서귀포시
중문해수욕장주차장,02,17,서귀포시,제주특별자치도 서귀포시 색달동 2950-23,제주특별자치도 서귀포시 색달동 2950-23,33.2445864403,126.414364471,1,무료,2015-05-07,2018-04-30,연중무휴,00:00,24:00,00:00,24:00,,,,,,,,,,,,,,,,,,,,,,,,,,서귀포보건소,064-760-2421,2018-07-31,6520000,제주특별자치도 서귀포시
중문해수욕장주차장,02,17,서귀포시,제주특별자치도 서귀포시 색달동 2950-23,제주특별자치도 서귀포시 색달동 2950-23,33.2445864403,126.414364471,1,무료,2015-07-22,2018-07-15,연중무휴,00:00,24:00,00:00,24:00,,,,,,,,,,,,,,,,,,,,,,,,,,서귀포보건소,064-760-2421,2018-07-31,6520000,제주특별자치도 서귀포시
천제연폭포주차장,02,17,서귀포시,제주특별자치도 서귀포시 천제연로 132(중문동),,33.2526765846,126.418375416,1,무료,2015-05-21,2018-04-30,연중무휴,00:00,24:00,00:00,24:00,,,,,,,,,,,,,,,,,,,,,,,,,,서귀포보건소,064-760-2421,2018-07-31,6520000,제주특별자치도 서귀포시
천제연폭포주차장,02,17,서귀포시,제주특별자치도 서귀포시 천제연로 132(중문동),,33.2526765846,126.418375416,1,무료,2015-05-07,2018-04-30,연중무휴,00:00,24:00,00:00,24:00,,,,,,,,,,,,,,,,,,,,,,,,,,서귀포보건소,064-760-2421,2018-07-31,6520000,제주특별자치도 서귀포시
구)탐라대교차로,99,17,서귀포시,제주특별자치도 서귀포시 하원동 산 78-1 앞 도로(산78-6),제주특별자치도 서귀포시 하원동 산 78-1 앞 도로(산78-6),33.2902544198,126.45955715,1,연18000원,2017-04-06,2019-02-28,연중무휴,00:00,24:00,00:00,24:00,,,,,,,,,,,,,,,,,,,,,,,,,,서귀포보건소,064-760-2421,2018-07-31,6520000,제주특별자치도 서귀포시
제2산록도로 광평교차로,99,17,서귀포시,제주특별자치도 서귀포시 안덕면 동광리 산 28,제주특별자치도 서귀포시 안덕면 동광리 산 28,33.3292790713,126.356453515,1,연5500원,2017-05-10,2019-04-01,연중무휴,00:00,24:00,00:00,24:00,,,,,,,,,,,,,,,,,,,,,,,,,,서귀포보건소,064-760-2421,2018-07-31,6520000,제주특별자치도 서귀포시
부산대학교내 장승터,06,02,금정구,부산광역시 금정구 부산대학로 63번길 2,부산광역시 금정구 장전동 40,35.2322431537,129.083824682,,0,2018-04-30,2018-05-04,연중무휴,11:00,15:00,00:00,00:00,00:00,00:00,00:00,00:00,00:00,00:00,11:00,15:00,11:00,15:00,00:00,00:00,00:00,00:00,00:00,00:00,00:00,00:00,00:00,00:00,00:00,00:00,00:00,00:00,,부산광역시 금정구청,051-519-4414,2018-08-09,3350000,부산광역시 금정구
금양초등학교,06,02,금정구,부산광역시 금정구 중앙대로 1755,부산광역시 금정구 부곡동 63-27,35.2412356585,129.092024929,,0,2018-08-04,2018-08-05,연중무휴,00:00,00:00,10:00,18:00,00:00,00:00,00:00,00:00,00:00,00:00,00:00,00:00,00:00,00:00,00:00,00:00,00:00,00:00,10:00,18:00,00:00,00:00,00:00,00:00,00:00,00:00,00:00,00:00,,부산광역시 금정구청,051-519-4414,2018-08-09,3350000,부산광역시 금정구
은평평화공원앞,08,01,은평구,,서울특별시 은평구 녹번동153-31,37.6056683411,126.92345247,2,"""년 284,000원""",2018-01-29,2019-01-19,연중무휴,12:00,22:00,12:00,22:00,,,,,,,,,,,,,,,,,,,,,,,,,,서울특별시 은평구,02-351-8175,2018-07-31,3110000,서울특별시 은평구
은평평화공원앞,08,01,은평구,,서울특별시 은평구 녹번동153-31,37.6056683411,126.92345247,2,"""년 284,000원""",2018-01-30,2019-01-19,연중무휴,12:00,22:00,12:00,22:00,,,,,,,,,,,,,,,,,,,,,,,,,,서울특별시 은평구,02-351-8175,2018-07-31,3110000,서울특별시 은평구
서울혁신파크,08,01,은평구,서울특별시 은평구 통일로684,서울특별시 은평구 녹번동 5-29,37.609405338,126.934955353,1,"""년 1,826,770원""",2017-03-14,2019-12-31,1월+2월,12:00,16:00,12:00,16:00,,,,,,,,,,,,,,,,,,,,,,,,,,서울특별시 은평구,02-351-8175,2018-07-31,3110000,서울특별시 은평구
두곡소공원내,08,16,남해군,,경상남도 남해군 남면 당항리 산289-4,34.7697159326,127.910472622,1,"""연1,170원""",2016-11-02,2018-11-01,연중무휴,10:00,18:00,10:00,18:00,10:00,18:00,10:00,18:00,10:00,18:00,10:00,18:00,10:00,18:00,10:00,18:00,10:00,18:00,10:00,18:00,10:00,18:00,10:00,18:00,10:00,18:00,10:00,18:00,주류,남해군,055-860-3242,2018-08-03,5430000,경상남도 남해군
앵강소공원내,08,16,남해군,경상남도 남해군 이동면 남해대로 1856-3,경상남도 남해군 이동면 무림리 260,34.7843308981,127.961343691,1,"""연6,970원""",2016-11-10,2018-11-09,연중무휴,10:00,18:00,10:00,18:00,10:00,18:00,10:00,18:00,10:00,18:00,10:00,18:00,10:00,18:00,10:00,18:00,10:00,18:00,10:00,18:00,10:00,18:00,10:00,18:00,10:00,18:00,10:00,18:00,주류,남해군,055-860-3242,2018-08-03,5430000,경상남도 남해군
물미해안도로내,08,16,남해군,,경상남도 남해군 삼동면 물건리 산271-3,,,1,연510원,2016-12-23,2018-12-22,연중무휴,10:00,18:00,10:00,18:00,00:00,00:00,00:00,00:00,00:00,00:00,00:00,00:00,00:00,00:00,00:00,00:00,00:00,00:00,00:00,00:00,00:00,00:00,00:00,00:00,00:00,00:00,00:00,00:00,주류,남해군,055-860-3242,2018-08-03,5430000,경상남도 남해군
남해유배문학관,08,16,남해군,경상남도 남해군 남해읍 남해대로 2745,경상남도 남해군 남해읍 남변리 555,34.8319585778,127.899185054,1,"""연93,550원""",2017-06-07,2019-06-06,연중무휴,10:00,18:00,10:00,18:00,00:00,00:00,00:00,00:00,00:00,00:00,00:00,00:00,00:00,00:00,00:00,00:00,00:00,00:00,00:00,00:00,00:00,00:00,00:00,00:00,00:00,00:00,00:00,00:00,주류,남해군,055-860-3242,2018-08-03,5430000,경상남도 남해군
유니온타워,04,09,하남시,,경기도 하남시 신장동 27번지 일원,37.5472096578,127.219269481,,0,2018-06-30,2018-08-26,없음,09:00,18:00,09:00,18:00,,,,,,,,,,,,,,,,,,,,,,,,,,하남시친환경사업소,031-790-6251,2018-08-13,4040000,경기도 하남시
하남문화예술회관,99,09,하남시,"""경기도 하남시 신평로 125, 하남문화예술회관 (덕풍동)""",경기도 하남시 덕풍동 694번지 하남문화예술회관,37.5447525433,127.206837647,,0,2018-05-05,2018-05-05,없음,09:00,18:00,09:00,18:00,,,,,,,,,,,,,,,,,,,,,,,,,,하남문화예술회관,031-790-7979,2018-08-13,4040000,경기도 하남시
북서울꿈의숲,04,01,강북구,서울특별시 강북구 월계로173,서울특별시 강북구 번동 83-2,37.617689,127.042192,2,"""연 15,180""",2017-10-10,2018-10-09,없음,15:00,21:00,09:00,22:00,,,,,,,,,,,,,,,,,,,,,,,,,,북서울꿈의숲,02-2289-4013,2018-08-07,3080000,서울특별시 강북구
강변축구장,03,03,북구,대구광역시 북구 조야로2길 113-30(서변동),,35.9089875455,128.590347743,,"""월 89,480원""",2016-05-25,2018-05-22,비정기적+우천시휴무,00:00,00:00,00:00,00:00,,,,,,,,,,,,,,,,,,,,,,,,,,대구광역시 북구 위생과,053-665-2754,2018-06-18,3450000,대구광역시 북구
검단졸음쉼터(부산방향),07,03,북구,대구광역시 북구 검단동 543-2,,35.9155001472,128.615513876,,월매출액의 1,2016-06-28,2018-06-30,연중무휴,07:00,19:00,07:00,19:00,,,,,,,,,,,,,,,,,,,,,,,,,,대구광역시 북구 위생과,053-665-2754,2018-06-18,3450000,대구광역시 북구
검단졸음쉼터(서울방향),07,03,북구,대구광역시 북구 검단동 376-11,,35.9160706733,128.615170989,,월매출액의 1,2016-06-28,2018-06-30,연중무휴,07:00,19:00,07:00,19:00,,,,,,,,,,,,,,,,,,,,,,,,,,대구광역시 북구 위생과,053-665-2754,2018-06-18,3450000,대구광역시 북구
구수산도서관 주차장,08,03,북구,대구광역시 북구 대천로 21(읍내동),,35.9387424514,128.552403803,,"""월 89,480원""",2016-12-27,2017-12-26,비정기적+우천시휴무,00:00,00:00,00:00,00:00,,,,,,,,,,,,,,,,,,,,,,,,,,대구광역시 북구 위생과,053-665-2754,2018-06-18,3450000,대구광역시 북구
산격대교 인근 축제장,99,03,북구,대구광역시 북구 산격동 677-3,,35.9056260027,128.600811908,,0,2017-09-23,2017-09-24,비정기적+우천시휴무,00:00,00:00,00:00,00:00,,,,,,,,,,,,,,,,,,,,,,,,,,대구광역시 북구 위생과,053-665-2754,2018-06-18,3450000,대구광역시 북구
북구청광장,08,03,북구,대구광역시 북구 옥산로 65(침산동),,35.8859370158,128.582387536,,0,2017-10-13,2017-10-13,비정기적+우천시휴무,00:00,00:00,00:00,00:00,,,,,,,,,,,,,,,,,,,,,,,,,,대구광역시 북구 위생과,053-665-2754,2018-06-18,3450000,대구광역시 북구
율하체육공원,04,03,동구,대구광역시 동구 금호강변로 278 (율하동),대구광역시 동구 율하동 1626번지,35.8599236329,128.692839966,2,"""2년/611,111원""",2017-08-30,2019-08-29,연중무휴,10:00,21:00,10:00,21:00,10:00,21:00,10:00,21:00,10:00,21:00,10:00,21:00,10:00,21:00,10:00,21:00,10:00,21:00,10:00,21:00,10:00,21:00,10:00,21:00,10:00,21:00,10:00,21:00,"""빵, 떡, 과자""",동구청 위생과,053-662-2775,2018-08-17,3420000,대구광역시 동구
보라메공원,04,06,서구,대전광역시 서구 문정로 보라메공원,대전광역시 서구 탄방동 보라매공원,,,5,0,2017-12-07,2018-01-31,연중무휴,10:00,23:00,10:00,23:00,10:00,23:00,00:00,00:00,00:00,00:00,00:00,00:00,00:00,00:00,00:00,00:00,00:00,00:00,00:00,00:00,00:00,00:00,00:00,00:00,00:00,00:00,00:00,00:00,,대전광역시 서구 위생과,042-288-3332,2018-08-02,3660000,대전광역시 서구
엑스포시민광장,04,06,서구,대전광역시 서구 둔산대로 169 엑스포시민광장 스케이트장,대전광역시 서구 만년동 396 엑스포시민광장 스케이트장,36.366468571,127.388015389,4,0,2017-12-15,2018-02-18,연중무휴,10:00,20:00,10:00,20:00,10:00,20:00,10:00,20:00,00:00,00:00,00:00,00:00,00:00,00:00,00:00,00:00,00:00,00:00,00:00,00:00,00:00,00:00,00:00,00:00,00:00,00:00,00:00,00:00,,대전광역시 서구 위생과,042-288-3332,2018-08-02,3660000,대전광역시 서구
중부선 농다리 졸음쉼터,07,11,진천군,,충청북도 진천군 문백면 구곡리 87번지 중부선 농다리 졸음쉼터,36.8347386945,127.494016798,1,0,2017-12-08,2018-12-07,연중무휴,00:00,24:00,00:00,24:00,,,,,,,,,,,,,,,,,,,,,,,,,,진천군,043-539-3426,2018-06-12,4450000,충청북도 진천군
신포청년몰,99,04,중구,인천광역시 중구 우현로 35번길 일원(도로),,,,7,"""연 1,445,446원""",2018-05-01,2019-04-30,월요일,11:00,20:00,11:00,20:00,11:00,20:00,11:00,20:00,11:00,20:00,11:00,20:00,11:00,20:00,11:00,20:00,11:00,20:00,11:00,20:00,11:00,20:00,11:00,20:00,11:00,20:00,11:00,20:00,없음,인천광역시,032-760-7347,2018-08-09,3490000,인천광역시 중구
춘향골체육공원,03,13,남원시,전라북도 남원시 충정로 341,전라북도 남원시 월락동 248,35.430734,127.404387,1,"""165,000""",2017-08-01,2018-08-02,연중무휴,09:00,18:00,09:00,18:00,09:00,18:00,09:00,18:00,09:00,18:00,09:00,18:00,09:00,18:00,09:00,18:00,09:00,18:00,09:00,18:00,09:00,18:00,09:00,18:00,09:00,18:00,09:00,18:00,없음,남원시청교육체육과,063-620-5619,2018-08-07,4700000,전라북도 남원시
독산역 2번출구 앞 광장,08,01,금천구,서울특별시 금천구 벚꽃로 115(가산동),서울특별시 금천구 가산동 717,37.4651984,126.8897931,4,1291000,2018-04-02,2018-12-31,토요일+일요일,07:00,20:00,00:00,00:00,,,,,,,07:00,20:00,07:00,20:00,07:00,20:00,07:00,20:00,07:00,20:00,07:00,20:00,07:00,20:00,07:00,20:00,07:00,20:00,주류,건설행정과,02-2627-1593,2018-08-21,3170000,서울특별시 금천구
함평공영주차장 내(현재 미운영),02,14,함평군,전라남도 함평군 함평읍 기각리 994-12,전라남도 함평군 함평읍 기각리 994-12,35.06250182,126.523358393,1,"""연161,920원""",2016-12-16,2018-12-15,미운영,00:00,00:00,00:00,00:00,,,,,,,,,,,,,,,,,,,,,,,,,,함평군,061-320-1644,2018-07-30,4960000,전라남도 함평군
황룡친수공원,04,05,광산구,광주광역시 광산구 선암동 214-4,광주광역시 광산구 선암동 214-4,35.144567,126.779189,1,"""년360,000원""",2018-06-01,2020-05-31,연중무휴,10:00,19:00,10:00,19:00,10:00,17:00,10:00,17:00,10:00,19:00,10:00,19:00,10:00,19:00,10:00,19:00,10:00,19:00,10:00,19:00,10:00,19:00,10:00,19:00,10:00,17:00,10:00,17:00,주류,광주광역시 건설행정과,062-960-8558,2018-08-07,3630000,광주광역시 광산구
금오랜드,01,15,구미시,경상북도 구미시 금오산로 339 (남통동),경상북도 구미시 남통동 253번지,36.1133035391,128.315583966,1,0,2015-02-11,2099-12-31,연중무휴,09:00,20:00,09:00,20:00,,,,,,,,,,,,,,,,,,,,,,,,,,구미시,054-480-5548,2018-06-30,5080000,경상북도 구미시
선기졸음쉼터(부산방향),07,15,구미시,,경상북도 구미시 도량동 472-4번지 선기졸음쉼터 (부산방향),36.1363049318,128.316181177,1,0,2017-12-12,2018-12-11,연중무휴,09:00,21:00,09:00,21:00,,,,,,,,,,,,,,,,,,,,,,,,,,구미시,054-480-5548,2018-06-30,5080000,경상북도 구미시
선기졸음쉼터(서울방향),07,15,구미시,,경상북도 구미시 도량동 333-2번지 선기졸음쉼터 (서울방향),36.1363781103,128.318048744,1,0,2017-12-12,2018-12-11,연중무휴,09:00,21:00,09:00,21:00,,,,,,,,,,,,,,,,,,,,,,,,,,구미시,054-480-5548,2018-06-30,5080000,경상북도 구미시
백세건강공원 축제장,08,12,청양군,,충청남도 청양군 청양읍 읍내리 404-1,36.4446986814,126.802161223,2,0,2018-09-07,2018-09-09,비정기적,00:00,23:59,00:00,23:59,,,,,,,,,,,,,,,,,,,,,,,,,,충청남도 청양군,041-940-2183,2018-08-09,4590000,충청남도 청양군
청양공설운동장,08,12,청양군,충청남도 청양군 청양읍 청산로 257-19,,36.4605383803,126.809323401,1,"""연 5,100원""",2018-07-04,2019-06-30,연중무휴,00:00,23:59,00:00,23:59,,,,,,,,,,,,,,,,,,,,,,,,,,충청남도 청양군,041-940-2183,2018-08-09,4590000,충청남도 청양군
청양문화예술회관,08,12,청양군,충청남도 청양군 청양읍 문화예술로 187,,36.4562202407,126.800641585,1,"""연 44,550원""",2018-07-04,2019-06-30,연중무휴,00:00,23:59,00:00,23:59,,,,,,,,,,,,,,,,,,,,,,,,,,충청남도 청양군,041-940-2183,2018-08-09,4590000,충청남도 청양군
칠갑산오토캠핑장,08,12,청양군,충청남도 청양군 대치면 까치내로 710,,36.3957245413,126.863183048,1,"""연 13,700원""",2018-07-04,2019-06-30,연중무휴,00:00,23:59,00:00,23:59,,,,,,,,,,,,,,,,,,,,,,,,,,충청남도 청양군,041-940-2183,2018-08-09,4590000,충청남도 청양군
청양군민체육관,08,12,청양군,충청남도 청양군 청양읍 충절로 1204,,36.4536867662,126.794615357,1,"""연 74,100원""",2018-07-04,2019-06-30,연중무휴,00:00,23:59,00:00,23:59,,,,,,,,,,,,,,,,,,,,,,,,,,충청남도 청양군,041-940-2183,2018-08-09,4590000,충청남도 청양군
치즈체험장,08,12,청양군,충청남도 청양군 비봉면 여사길 18-17,,36.4895327851,126.758789961,1,0,2018-08-01,2023-07-31,연중무휴,00:00,23:59,00:00,23:59,,,,,,,,,,,,,,,,,,,,,,,,,,충청남도 청양군,041-940-2183,2018-08-09,4590000,충청남도 청양군
서동생활공원,03,16,의령군,경상남도 의령군 의령읍 의병로8길 44,경상남도 의령군 의령읍 서동리 543,35.316093,128.256688,1,"""60,220""",2018-08-09,2023-08-08,연중무휴,10:00,21:00,10:00,21:00,10:00,21:00,10:00,21:00,10:00,21:00,10:00,21:00,10:00,21:00,10:00,21:00,10:00,21:00,10:00,21:00,10:00,21:00,10:00,21:00,10:00,21:00,10:00,21:00,주류,시설관리사업소,055-570-2853,2018-08-01,5390000,경상남도 의령군
한우산 생태숲,99,16,의령군,,경상남도 의령군 궁류면 벽계리 산200,35.394149,128.195338,2,사용료 면제,2016-12-01,2018-11-30,연중무휴,09:00,18:00,09:00,18:00,09:00,18:00,09:00,18:00,09:00,18:00,09:00,18:00,09:00,18:00,09:00,18:00,09:00,18:00,09:00,18:00,09:00,18:00,09:00,18:00,09:00,18:00,09:00,18:00,주류,기획감사실,055-570-2143,2018-08-01,5390000,경상남도 의령군
웰빙레포츠타운,03,10,동해시,강원도 동해시 덕골길 10 웰빙레포츠타운,강원도 동해시 천곡동 361-1,37.5149661,129.1015241,1,"""월 5,000원""",2016-01-01,2018-01-31,연중무휴,09:00,20:00,09:00,20:00,09:00,20:00,09:00,20:00,09:00,20:00,09:00,20:00,09:00,20:00,09:00,20:00,09:00,20:00,09:00,20:00,09:00,20:00,09:00,20:00,09:00,20:00,09:00,20:00,,시설관리공단,033-539-3561,2018-03-27,B551313,동해시시설관리공단
창원컨벤션센터,99,16,창원시 의창구,경상남도 창원시 의창구 원이대로 362,경상남도 창원시 의창구 대원동 123,,,1,0,2018-11-02,2018-11-02,연중무휴,00:00,00:00,00:00,00:00,,,,,,,,,,,,,,,,,,,,,,,,,없음,창원시 의창구,055-212-4553,2019-04-10,5670000,경상남도 창원시
창원컨벤션센터,99,16,창원시 의창구,경상남도 창원시 의창구 원이대로 362,경상남도 창원시 의창구 대원동 123,,,1,0,2018-03-22,2018-03-25,연중무휴,00:00,00:00,00:00,00:00,,,,,,,,,,,,,,,,,,,,,,,,,없음,창원시 의창구,055-212-4553,2019-04-10,5670000,경상남도 창원시
창원컨벤션센터,99,16,창원시 의창구,경상남도 창원시 의창구 원이대로 362,경상남도 창원시 의창구 대원동 123,,,1,0,2018-03-22,2018-03-25,연중무휴,00:00,00:00,00:00,00:00,,,,,,,,,,,,,,,,,,,,,,,,,없음,창원시 의창구,055-212-4553,2019-04-10,5670000,경상남도 창원시
성산아트홀,99,16,창원시 의창구,경상남도 창원시 의창구 중앙대로 181,경상남도 창원시 의창구 용호동 2,,,1,0,2018-09-08,2018-09-08,연중무휴,00:00,00:00,00:00,00:00,,,,,,,,,,,,,,,,,,,,,,,,,없음,창원시 의창구,055-212-4553,2019-04-10,5670000,경상남도 창원시
성산아트홀,99,16,창원시 의창구,경상남도 창원시 의창구 중앙대로 181,경상남도 창원시 의창구 용호동 2,,,1,0,2018-10-13,2018-10-13,연중무휴,00:00,00:00,00:00,00:00,,,,,,,,,,,,,,,,,,,,,,,,,없음,창원시 의창구,055-212-4553,2019-04-10,5670000,경상남도 창원시
용지문화공원,04,16,창원시 의창구,경상남도 창원시 의창구 중앙대로210번길 3,경상남도 창원시 의창구 신월동 100-5,,,1,0,2018-08-25,2018-08-25,연중무휴,00:00,00:00,00:00,00:00,,,,,,,,,,,,,,,,,,,,,,,,,없음,창원시 의창구,055-212-4553,2019-04-10,5670000,경상남도 창원시
용지문화공원,04,16,창원시 의창구,경상남도 창원시 의창구 신월동 98,경상남도 창원시 의창구 신월동 98,,,1,0,2017-11-11,2017-11-12,연중무휴,00:00,00:00,00:00,00:00,,,,,,,,,,,,,,,,,,,,,,,,,없음,창원시 의창구,055-212-4553,2019-04-10,5670000,경상남도 창원시
용지문화공원,04,16,창원시 의창구,경상남도 창원시 의창구 신월동 98,경상남도 창원시 의창구 신월동 98,,,1,0,2017-11-11,2017-11-12,연중무휴,00:00,00:00,00:00,00:00,,,,,,,,,,,,,,,,,,,,,,,,,없음,창원시 의창구,055-212-4553,2019-04-10,5670000,경상남도 창원시
용지문화공원,04,16,창원시 의창구,경상남도 창원시 의창구 신월동 98,경상남도 창원시 의창구 신월동 98,,,1,0,2017-11-11,2017-11-12,연중무휴,00:00,00:00,00:00,00:00,,,,,,,,,,,,,,,,,,,,,,,,,없음,창원시 의창구,055-212-4553,2019-04-10,5670000,경상남도 창원시
용지문화공원,04,16,창원시 의창구,경상남도 창원시 의창구 신월동 98,경상남도 창원시 의창구 신월동 98,,,1,0,2017-11-11,2017-11-12,연중무휴,00:00,00:00,00:00,00:00,,,,,,,,,,,,,,,,,,,,,,,,,없음,창원시 의창구,055-212-4553,2019-04-10,5670000,경상남도 창원시
창원과학체험관,99,16,창원시 성산구,경상남도 창원시 성산구 충혼로72번길1 6,경상남도 창원시 성산구 중앙동 120,35.2304082,128.6606703,1,0,2015-10-22,2021-10-29,연중무휴,00:00,00:00,00:00,00:00,,,,,,,,,,,,,,,,,,,,,,,,,없음,창원시 성산구,055-272-4563,2019-04-10,5670000,경상남도 창원시
아라미르골프장,99,16,창원시 진해구,경상남도 창원시 진해구 수제로 36,경상남도 창원시 진해구 제덕동 898,,,2,0,2018-12-31,2019-12-21,연중무휴,06:00,23:00,06:00,23:00,,,,,,,,,,,,,,,,,,,,,,,,,술,창원시 진해구,055-548-4552,2019-04-10,5670000,경상남도 창원시
진해구민회관,08,16,창원시 진해구,경상남도 창원시 진해구 진해대로 325,경상남도 창원시 진해구 태백동 98,,,1,"년 202,400원",2019-02-15,2022-02-22,연중무휴,09:00,18:00,09:00,18:00,,,,,,,,,,,,,,,,,,,,,,,,,술,창원시 진해구,055-548-4552,2019-04-10,5670000,경상남도 창원시
도덕산근린공원 내,04,09,광명시,경기도 광명시 광명동 317-80,경기도 광명시 광명동 317-80,37.4683000,126.8578000,1,"""연 7,000원~8,000원""",2017-01-09,2019-01-06,연중무휴,13:00,21:00,13:00,21:00,,,,,,,,,,,,,,,,,,,,,,,,,,광명시 생활위생과,02-2680-5483,2018-08-20,3900000,경기도 광명시
당항포관광지,02,16,고성군,경상남도 고성군 회화면 당항만로 1116,경상남도 고성군 회화면 봉동리 950-1,35.0532261509,128.392027622,1,일 연간사용료/365,2015-10-20,2018-10-19,연중무휴,09:00,18:00,09:00,18:00,,,,,,,,,,,,,,,,,,,,,,,,,,경상남도 고성군,055-670-4504,2018-08-24,5420000,경상남도 고성군
갈모봉산림욕장,99,16,고성군,,경상남도 고성군 고성읍 이당리 653-2,34.9765883381,128.268582259,1,일 연간사용료/365,2016-12-01,2018-11-30,연중무휴,09:00,18:00,09:00,18:00,,,,,,,,,,,,,,,,,,,,,,,,,,경상남도 고성군,055-670-2673,2018-08-24,5420000,경상남도 고성군
금산군푸드트럭존,99,12,금산군,충청남도 금산군 금산읍 금산로 1559,충청남도 금산군 금산읍 중도리 203-1,36.1120675409,127.491637325,1,618700,2017-03-17,2019-03-16,없음,10:00,20:00,10:00,20:00,13:00,17:00,13:00,17:00,13:00,17:00,10:00,20:00,10:00,20:00,10:00,20:00,10:00,20:00,10:00,20:00,10:00,20:00,10:00,20:00,13:00,17:00,13:00,17:00,,금산군,041-750-2244,2018-08-28,4550000,충청남도 금산군
온더키친,02,09,연천군,,경기도 연천군 전곡읍 전곡리 705-2 한탄강 세계 캠핑장,38.0074578589,127.062614408,1,0,2017-08-01,2017-08-05,없음,00:00,24:00,00:00,24:00,,,,,,,,,,,,,,,,,,,,,,,,,술,연천군청,031-839-2232,2018-09-07,4140000,경기도 연천군
뉴욕커 핫도그,02,09,연천군,경기도 의정부시 체육로 90(녹양동),경기도 의정부시 녹양동 174-1 종합운동장 실내채육관벨로드롬 경기장,37.7575689515,127.0290955493,1,0,2017-07-27,2017-08-05,없음,00:00,24:00,00:00,24:00,,,,,,,,,,,,,,,,,,,,,,,,,술,연천군청,031-839-2232,2018-09-07,4140000,경기도 연천군
구석기,02,09,연천군,,경기도 연천군 전곡읍 전곡리 189,38.0153945031,127.063417974,1,0,2015-11-12,2020-10-13,없음,00:00,24:00,00:00,24:00,,,,,,,,,,,,,,,,,,,,,,,,,술,연천군청,031-839-2232,2018-09-07,4140000,경기도 연천군
쉬림프 파파,02,09,연천군,,경기도 연천군 전곡읍 전곡리 705-2 한탄강 세계캠핑축제,38.0074578589,127.062614408,1,0,2017-07-27,2017-08-05,없음,00:00,24:00,00:00,24:00,,,,,,,,,,,,,,,,,,,,,,,,,술,연천군청,031-839-2232,2018-09-07,4140000,경기도 연천군
뉴욕커 핫도그,02,09,연천군,경기도 의정부시 체육로 90(녹양동),경기도 의정부시 녹양동 174-1 종합운동장 실내채육관벨로드롬 경기장,37.7575689515,127.0290955493,1,0,2017-07-27,2017-08-05,없음,00:00,24:00,00:00,24:00,,,,,,,,,,,,,,,,,,,,,,,,,술,연천군청,031-839-2232,2018-09-07,4140000,경기도 연천군
온더키친,02,09,연천군,,경기도 연천군 전곡읍 전곡리 705-2 한탄강 세계 캠핑장,38.0074578589,127.062614408,1,0,2017-08-01,2017-08-05,없음,00:00,24:00,00:00,24:00,,,,,,,,,,,,,,,,,,,,,,,,,술,연천군청,031-839-2232,2018-09-07,4140000,경기도 연천군
로하스 캠핑테리아,99,09,연천군,경기도 연천군 전곡읍 은전로 45 (젼곡읍사무소 정문 인근),경기도 연천군 전곡읍 은대리 573 전곡읍 사무소 정문 인근,38.0275029117,127.0631431991,1,0,2017-08-30,2022-08-31,없음,00:00,24:00,00:00,24:00,,,,,,,,,,,,,,,,,,,,,,,,,술,연천군청,031-839-2232,2018-09-07,4140000,경기도 연천군
구석기,02,09,연천군,,경기도 연천군 전곡읍 전곡리 189,38.0153945031,127.063417974,1,0,2015-11-12,2020-10-13,없음,00:00,24:00,00:00,24:00,,,,,,,,,,,,,,,,,,,,,,,,,술,연천군청,031-839-2232,2018-09-07,4140000,경기도 연천군
쉬림프 파파,02,09,연천군,,경기도 연천군 전곡읍 전곡리 705-2 한탄강 세계캠핑축제,38.0074578589,127.062614408,1,0,2017-07-27,2017-08-05,없음,00:00,24:00,00:00,24:00,,,,,,,,,,,,,,,,,,,,,,,,,술,연천군청,031-839-2232,2018-09-07,4140000,경기도 연천군
뉴욕커 핫도그,02,09,연천군,경기도 의정부시 체육로 90(녹양동),경기도 의정부시 녹양동 174-1 종합운동장 실내채육관벨로드롬 경기장,37.7575689515,127.0290955493,1,0,2017-07-27,2017-08-05,없음,00:00,24:00,00:00,24:00,,,,,,,,,,,,,,,,,,,,,,,,,술,연천군청,031-839-2232,2018-09-07,4140000,경기도 연천군
온더키친,02,09,연천군,,경기도 연천군 전곡읍 전곡리 705-2 한탄강 세계 캠핑장,38.0074578589,127.062614408,1,0,2017-08-01,2017-08-05,없음,00:00,24:00,00:00,24:00,,,,,,,,,,,,,,,,,,,,,,,,,술,연천군청,031-839-2232,2018-09-07,4140000,경기도 연천군
로하스 캠핑테리아,99,09,연천군,경기도 연천군 전곡읍 은전로 45 (젼곡읍사무소 정문 인근),경기도 연천군 전곡읍 은대리 573 전곡읍 사무소 정문 인근,38.0275029117,127.0631431991,1,0,2017-08-30,2022-08-31,없음,00:00,24:00,00:00,24:00,,,,,,,,,,,,,,,,,,,,,,,,,술,연천군청,031-839-2232,2018-09-07,4140000,경기도 연천군
구석기,02,09,연천군,,경기도 연천군 전곡읍 전곡리 189,38.0153945031,127.063417974,1,0,2015-11-12,2020-10-13,없음,00:00,24:00,00:00,24:00,,,,,,,,,,,,,,,,,,,,,,,,,술,연천군청,031-839-2232,2018-09-07,4140000,경기도 연천군
쉬림프 파파,02,09,연천군,,경기도 연천군 전곡읍 전곡리 705-2 한탄강 세계캠핑축제,38.0074578589,127.062614408,1,0,2017-07-27,2017-08-05,없음,00:00,24:00,00:00,24:00,,,,,,,,,,,,,,,,,,,,,,,,,술,연천군청,031-839-2232,2018-09-07,4140000,경기도 연천군
로하스 캠핑테리아,99,09,연천군,경기도 연천군 전곡읍 은전로 45 (젼곡읍사무소 정문 인근),경기도 연천군 전곡읍 은대리 573 전곡읍 사무소 정문 인근,38.0275029117,127.0631431991,1,0,2017-08-30,2022-08-31,없음,00:00,24:00,00:00,24:00,,,,,,,,,,,,,,,,,,,,,,,,,술,연천군청,031-839-2232,2018-09-07,4140000,경기도 연천군
소사국민체육센터,03,09,부천시,경기도 부천시 소사구 소사로 108,,37.4684393542,126.7983828114,1,연 1092850원,2016-04-01,2019-03-01,연중무휴,10:00,19:00,10:00,19:00,,,,,,,,,,,,,,,,,,,,,,,,,,부천시 시설관리공단,032-340-5320,2019-03-01,3860000,경기도 부천시
부천종합운동장,03,09,부천시,경기도 부천시 소사로 482,,37.5025669833,126.7990239231,1,연 247500원,2016-11-01,2019-10-31,연중무휴,10:00,19:00,10:00,19:00,,,,,,,,,,,,,,,,,,,,,,,,,,부천시,032-340-0872,2019-03-01,3860000,경기도 부천시
"""서서울톨게이트,(서울방향)졸음쉼터 내""",07,09,안산시 상록구,,"""경기도 안산시 상록구 장하동 산 8번지 1호 서서울톨게이트, 서울방향""",37.357642,126.8650475,,0,2017-12-15,2018-12-14,연중무휴,07:00,20:00,07:00,20:00,,,,,,,,,,,,,,,,,,,,,,,,,,상록구청 환경위생과,031-481-5235,2018-08-31,3930000,경기도 안산시
"""서서울톨게이트,(목포방향)졸음쉼터 내""",07,09,안산시 상록구,"""경기도 안산시 상록구 장하로 141-2, 서서울TG(목포)졸음쉼터 내 (장하동)""",경기도 안산시 상록구 장하동 151번지 서서울TG(목포)졸음쉼터 내,37.3549176,126.8620418,,0,2017-12-13,2018-12-12,미확인,00:00,00:00,00:00,00:00,,,,,,,,,,,,,,,,,,,,,,,,,,상록구청 환경위생과,031-481-5235,2018-08-31,3930000,경기도 안산시
와스타디움E동 GATE3 우측,03,09,안산시 상록구,"""경기도 안산시 단원구 화랑로 260 (초지동, 와스타디움E동 GATE3 우측)""",경기도 안산시 단원구 초지동 666번지 1호 와스타디움E동 GATE3 우측,37.3197273,126.8167806,,0,2018-03-11,2018-11-03,경기시작2시간전부터경기종료15분후까지외는 휴무,00:00,00:00,00:00,00:00,,,,,,,,,,,,,,,,,,,,,,,,,,단원구청 환경위생과,031-481-6235,2018-08-31,3930000,경기도 안산시
와스타디움E동 GATE3 우측,03,09,안산시 상록구,"""경기도 안산시 단원구 화랑로 260 (초지동, 와스타디움E동 GATE3 우측 )""",경기도 안산시 단원구 초지동 666번지 와스타디움E(동) GATE3 우측,37.3197273,126.8167806,,0,2018-03-11,2018-11-03,경기시작2시간전부터경기종료15분후까지외는 휴무,00:00,00:00,00:00,00:00,,,,,,,,,,,,,,,,,,,,,,,,,,단원구청 환경위생과,031-481-6235,2018-08-31,3930000,경기도 안산시
단원구노인복지관,08,09,안산시 상록구,"""경기도 안산시 단원구 선부광장1로 134, 단원구노인복지관 주차장 좌측 일부 (선부동)""",경기도 안산시 단원구 선부동 1077번지 9호,37.3321797,126.8106017,,0,2018-03-09,2019-12-31,미확인,00:00,00:00,00:00,00:00,,,,,,,,,,,,,,,,,,,,,,,,,,단원구청 환경위생과,031-481-6235,2018-08-31,3930000,경기도 안산시
강진오감통,99,14,강진군,전라남도 강진군 강진읍 오감길 2 2동,,34.6392150171,126.774040254,0,-,2018-10-01,2019-09-30,-,00:00,00:00,00:00,00:00,00:00,00:00,00:00,00:00,00:00,00:00,00:00,00:00,00:00,00:00,00:00,00:00,00:00,00:00,00:00,00:00,00:00,00:00,00:00,00:00,00:00,00:00,00:00,00:00,-,강진군청,061-430-3362,2018-10-16,4920000,전라남도 강진군
고려청자박물관,99,14,강진군,전라남도 강진군 대구면 청자촌길 33 청자사업소,,34.5086604097,126.800837521,0,-,2018-10-01,2019-09-30,-,00:00,00:00,00:00,00:00,00:00,00:00,00:00,00:00,00:00,00:00,00:00,00:00,00:00,00:00,00:00,00:00,00:00,00:00,00:00,00:00,00:00,00:00,00:00,00:00,00:00,00:00,00:00,00:00,-,강진군청,061-430-3732,2018-10-16,4920000,전라남도 강진군
시문학파기념관,99,14,강진군,전라남도 강진군 강진읍 영랑생가길 14,,34.6422862906,126.765960716,0,-,2018-10-01,2019-09-30,-,00:00,00:00,00:00,00:00,00:00,00:00,00:00,00:00,00:00,00:00,00:00,00:00,00:00,00:00,00:00,00:00,00:00,00:00,00:00,00:00,00:00,00:00,00:00,00:00,00:00,00:00,00:00,00:00,-,강진군청,061-430-3372,2018-10-16,4920000,전라남도 강진군
다산박물관,99,14,강진군,전라남도 강진군 도암면 다산로 766-20,,34.5764134651,126.74995479,0,-,2018-10-01,2019-09-30,-,00:00,00:00,00:00,00:00,00:00,00:00,00:00,00:00,00:00,00:00,00:00,00:00,00:00,00:00,00:00,00:00,00:00,00:00,00:00,00:00,00:00,00:00,00:00,00:00,00:00,00:00,00:00,00:00,-,강진군청,061-430-3912,2018-10-16,4920000,전라남도 강진군
강진군도서관,99,14,강진군,전라남도 강진군 강진읍 남문길 10,,34.6405086112,126.769722014,0,-,2018-10-01,2019-09-30,-,00:00,00:00,00:00,00:00,00:00,00:00,00:00,00:00,00:00,00:00,00:00,00:00,00:00,00:00,00:00,00:00,00:00,00:00,00:00,00:00,00:00,00:00,00:00,00:00,00:00,00:00,00:00,00:00,-,강진군청,061-430-3832,2018-10-16,4920000,전라남도 강진군
강진군아트홀,99,14,강진군,전라남도 강진군 강진읍 영랑로1길 9 강진아트홀,,34.6381735609,126.770500648,0,-,2018-10-01,2019-09-30,-,00:00,00:00,00:00,00:00,00:00,00:00,00:00,00:00,00:00,00:00,00:00,00:00,00:00,00:00,00:00,00:00,00:00,00:00,00:00,00:00,00:00,00:00,00:00,00:00,00:00,00:00,00:00,00:00,-,강진군청,061-430-3972,2018-10-16,4920000,전라남도 강진군
푸드트럭존,05,15,영덕군,경상북도 영덕군 축산면 축산리 944-7,경상북도 영덕군 축산면 축산리 944-7,36.5061666632,129.446463403,1,"""10,100원""",2017-08-31,2019-08-30,연중무휴,09:00,18:00,09:00,20:00,09:00,17:00,09:00,17:00,09:00,18:00,09:00,18:00,09:00,18:00,09:00,19:00,09:00,19:00,09:00,19:00,09:00,19:00,09:00,18:00,09:00,18:00,09:00,18:00,주류,경상북도 영덕군청,054-730-6172,2018-09-03,5180000,경상북도 영덕군
푸드트럭존,05,15,영덕군,경상북도 영덕군 축산면 축산리 944-7,경상북도 영덕군 축산면 축산리 944-7,36.5061666632,129.446463403,1,"""10,100원""",2017-11-06,2019-11-05,연중무휴,09:00,18:00,09:00,20:00,09:00,17:00,09:00,17:00,09:00,18:00,09:00,18:00,09:00,18:00,09:00,19:00,09:00,19:00,09:00,19:00,09:00,19:00,09:00,18:00,09:00,18:00,09:00,18:00,주류,경상북도 영덕군청,054-730-6172,2018-09-03,5180000,경상북도 영덕군
푸드트럭존,99,15,영덕군,경상북도 영덕군 영덕읍 창포리 113-1,경상북도 영덕군 영덕읍 창포리 113-1,36.417606221,129.430764023,1,"""47,000원""",2017-09-14,2019-09-13,연중무휴,09:00,18:00,09:00,20:00,09:00,17:00,09:00,17:00,09:00,18:00,09:00,18:00,09:00,18:00,09:00,19:00,09:00,19:00,09:00,19:00,09:00,19:00,09:00,18:00,09:00,18:00,09:00,18:00,주류,경상북도 영덕군청,054-730-6172,2018-09-03,5180000,경상북도 영덕군
푸드트럭존,99,15,영덕군,경상북도 영덕군 영덕읍 창포리 328-1,경상북도 영덕군 영덕읍 창포리 328-1,36.4247615645,129.419495741,1,"""173,910원""",2017-11-29,2019-11-28,연중무휴,09:00,18:00,09:00,20:00,09:00,17:00,09:00,17:00,09:00,18:00,09:00,18:00,09:00,18:00,09:00,19:00,09:00,19:00,09:00,19:00,09:00,19:00,09:00,18:00,09:00,18:00,09:00,18:00,주류,경상북도 영덕군청,054-730-6172,2018-09-03,5180000,경상북도 영덕군
병지방계곡,02,10,횡성군,,강원도 횡성군 갑천면 병리ㅈ방리 530,,,1,0,2017-03-15,2019-02-12,연중무휴,00:00,23:59,00:00,23:59,,,,,,,,,,,,,,,,,,,,,,,,,,횡성군,033-340-5693,2018-07-31,4260000,강원도 횡성군
곤지암도자기공원,02,09,광주시,경기도 광주시 곤지암읍 경충대로 727,경기도 광주시 곤지암읍 삼리 26-9,37.351334,127.327554,5,0,2018-04-17,2019-12-31,연중무휴,09:00,18:00,09:00,18:00,,,,,,,,,,,,,,,,,,,,,,,,,,경기도 광주시청,031-760-2840,2019-04-30,5540000,경기도 광주시
곤지암팀업캠퍼스,99,09,광주시,경기도 광주시 곤지암읍 경충대로 729,경기도 광주시 곤지암읍 삼리 430,37.352264,127.323567,2,0,2018-11-19,2022-07-30,연중무휴,00:00,00:00,00:00,00:00,,,,,,,,,,,,,,,,,,,,,,,,,,경기도 광주시청,031-760-2840,2019-04-30,5540000,경기도 광주시
광주시청,99,09,광주시,경기도 광주시 행정타운로 50,경기도 광주시 송정동 570,37.429474,127.254964,1,0,2017-09-09,2017-09-09,연중무휴,00:00,00:00,00:00,00:00,,,,,,,,,,,,,,,,,,,,,,,,,,경기도 광주시청,031-760-2840,2019-04-30,5540000,경기도 광주시
청석공원,05,09,광주시,,경기도 광주시 쌍령동 242,37.402307,127.272794,1,0,2016-09-05,2018-12-31,연중무휴,00:00,00:00,00:00,00:00,,,,,,,,,,,,,,,,,,,,,,,,,,경기도 광주시청,031-760-2840,2019-04-30,5540000,경기도 광주시
홍예공원,04,12,홍성군,충청남도 홍성군 홍북읍 홍예공원로 38,충청남도 홍성군 홍북읍 신경리 886,36.6547863,126.664877,1,"""연94,000원""",2018-01-01,2020-12-31,연중무휴,00:00,24:00,00:00,24:00,00:00,24:00,00:00,24:00,00:00,24:00,00:00,24:00,00:00,24:00,00:00,24:00,00:00,24:00,00:00,24:00,00:00,24:00,00:00,24:00,00:00,24:00,00:00,24:00,,홍성군,041-630-9632,2018-08-17,4600000,충청남도 홍성군
체육공원,04,12,홍성군,충청남도 홍성군 홍북읍 신경리 1557,충청남도 홍성군 홍북읍 신경리 1557,36.6528728,126.671258,1,"""연94,000원""",2018-01-01,2020-12-31,연중무휴,00:00,24:00,00:00,24:00,00:00,24:00,00:00,24:00,00:00,24:00,00:00,24:00,00:00,24:00,00:00,24:00,00:00,24:00,00:00,24:00,00:00,24:00,00:00,24:00,00:00,24:00,00:00,24:00,,홍성군,041-630-9632,2018-08-17,4600000,충청남도 홍성군
남해고속도로지수졸음쉼터,07,16,진주시,,경상남도 진주시 지수면 금곡리 240-4,35.208598306,128.258331347,1,월 20-30만원,2016-07-01,2019-07-15,공휴일,08:00,20:00,08:00,20:00,08:00,20:00,08:00,20:00,08:00,20:00,08:00,20:00,08:00,20:00,08:00,20:00,08:00,20:00,08:00,20:00,08:00,20:00,08:00,20:00,08:00,20:00,08:00,20:00,주류,진주시,055-749-8673,2018-08-27,5310000,경상남도 진주시
화진포관광지,02,10,고성군,강원도 고성군 현내면 화진포길 412,강원도 고성군 현내면 초도리 84-1,38.285253,128.261131,1,"""129,800""",2018-07-11,2021-07-10,N,09:00,18:00,09:00,18:00,09:00,18:00,09:00,18:00,09:00,18:00,09:00,18:00,09:00,18:00,09:00,18:00,09:00,18:00,09:00,18:00,09:00,18:00,09:00,18:00,09:00,18:00,09:00,18:00,,고성군청 관광문화체육과,033-680-3352,2018-09-13,4340000,강원도 고성군
번영로(황지동) 태백농협하나로마트 주차장내,99,10,태백시,강원도 태백시 번영로 254,강원도 태백시 황지동 59-192,37.165234,128.986284,,0,2018-05-01,2018-05-03,연중무휴,00:00,00:00,00:00,00:00,,,,,,,,,10:00,21:00,,,,,,,,,,,,,,,병입 음료,강원도 태백시,033-550-3015,2018-08-28,4220000,강원도 태백시
고원로 문화예술회관,99,10,태백시,강원도 태백시 고원로 203,강원도 태백시 황지동 49-225,37.171932,128.988125,,0,2018-05-01,2018-08-05,연중무휴,00:00,00:00,00:00,00:00,,,,,,,,,,,,,15:00,,22:00,,,,,,,,,,병입 음료,강원도 태백시,033-550-3015,2018-08-28,4220000,강원도 태백시
고원로 문화예술회관,99,10,태백시,강원도 태백시 고원로 203,강원도 태백시 황지동 49-225,37.171932,128.988125,,0,2018-07-01,2018-08-05,연중무휴,00:00,00:00,00:00,00:00,,,,,,,,,,,,,15:00,,22:00,,,,,,,,,,병입 음료,강원도 태백시,033-550-3015,2018-08-28,4220000,강원도 태백시
연화산길 고원제1구장,03,10,태백시,강원도 태백시 연화산길 10 제1구장,강원도 태백시 문곡소도동  13-9,37.139464,129.003269,,0,2018-07-01,2018-08-05,연중무휴,00:00,00:00,00:00,00:00,,,,,,,,,,,,,15:00,,22:00,,,,,,,,,,병입 음료,강원도 태백시,033-550-3015,2018-08-28,4220000,강원도 태백시
고원로 문화예술회관,99,10,태백시,강원도 태백시 고원로 203,강원도 태백시 황지동 49-225,37.171932,128.988125,,0,2018-07-01,2018-08-05,연중무휴,00:00,00:00,00:00,00:00,,,,,,,,,,,,,15:00,,22:00,,,,,,,,,,병입 음료,강원도 태백시,033-550-3015,2018-08-28,4220000,강원도 태백시
번영로(황지동) 태백농협하나로마트 주차장내,99,10,태백시,강원도 태백시 번영로 254,강원도 태백시 황지동 59-192,37.165234,128.986284,,0,2018-07-12,2018-07-19,연중무휴,00:00,00:00,00:00,00:00,,,,,,,,,,,,,10:00,,21:00,,,,,,,,,,병입 음료,강워도 태백시,033-550-3015,2018-08-28,4220000,강원도 태백시
이월드,01,03,달서구,대구광역시 달서구 두류공원로 200,,35.85486983,128.564828,,월 매출액의 25,2017-08-01,2018-07-31,연중무휴,10:00,22:00,10:00,22:00,,,,,,,,,,,,,,,,,,,,,,,,,,달서구청,053-667-3761,2018-08-20,3470000,대구광역시 달서구
이월드,01,03,달서구,대구광역시 달서구 두류공원로 200,,35.85486983,128.564828,,월 매출액의 30,2017-11-01,2018-10-31,연중무휴,10:00,22:00,10:00,22:00,,,,,,,,,,,,,,,,,,,,,,,,,,달서구청,053-667-3761,2018-08-20,3470000,대구광역시 달서구
두류수영장,03,03,달서구,"""대구광역시 달서구 공원순환로 237 (성당동, 두류워터파크 야외수영장 내)""",,35.84695319,128.5616277,,0,2018-07-27,2018-07-29,연중무휴,10:00,22:00,10:00,22:00,,,,,,,,,,,,,,,,,,,,,,,,,,달서구청,053-667-3761,2018-08-20,3470000,대구광역시 달서구
두류공원,04,03,달서구,대구광역시 달서구 야외음악당로 180 (두류동),,35.85113373,128.5561771,,0,2018-07-27,2018-07-29,연중무휴,10:00,22:00,10:00,22:00,,,,,,,,,,,,,,,,,,,,,,,,,,달서구청,053-667-3761,2018-08-20,3470000,대구광역시 달서구
중앙체육공원,04,13,익산시,전라북도 익산시 하나로 322,전라북도 익산시 어양동 52,35.949841,126.985783,1,14300,2016-10-06,2019-10-05,무,10:00,21:00,10:00,21:00,10:00,21:00,10:00,21:00,10:00,21:00,10:00,21:00,10:00,21:00,10:00,21:00,10:00,21:00,10:00,21:00,10:00,21:00,10:00,21:00,10:00,21:00,10:00,21:00,,전라북도 익산시,063-859-4692,2019-03-21,4680000,전라북도 익산시
친환경스카이웨이주차장,08,02,동구,,부산광역시 동구 초량동 827-389 친환경스카이웨이주차장,35.1204243703,129.031602706,1,176410,2016-12-15,2018-12-14,연중무휴,10:00,23:00,10:00,23:00,,,,,,,,,,,,,,,,,,,,,,,,,,부산광역시 동구청,051-440-4984,2018-08-23,3270000,부산광역시 동구
동백섬(더베이101),02,02,해운대구,부산광역시 해운대구 동백로 52,부산광역시 해운대구 우동 747-7,35.1566229,129.1521452,1,0원,2015-07-30,2018-12-31,연중무휴,16:00,00:00,11:00,00:00,,,,,,,,,,,,,,,,,,,,,,,,,주류,해운대구,051-749-5602,2018-08-10,3330000,부산광역시 해운대구
해운대구청,08,02,해운대구,부산광역시 해운대구 중동2로 11,부산광역시 해운대구 중동 1378-95,35.1631596,129.1635629,1,"""연간 1,943,150원""",2017-01-01,2018-12-31,연중무휴,08:00,21:00,08:00,21:00,,,,,,,,,,,,,,,,,,,,,,,,,주류,해운대구,051-749-4161,2018-08-10,3330000,부산광역시 해운대구
대천공원,04,02,해운대구,부산광역시 해운대구 장산로 331-19,부산광역시 해운대구 좌동 1381,35.1806743,129.1671202,1,"""연간 95,590원""",2017-11-22,2018-10-31,연중무휴,08:00,22:00,08:00,22:00,,,,,,,,,,,,,,,,,,,,,,,,,주류+ 담배,해운대구,051-749-4495,2018-08-10,3330000,부산광역시 해운대구
한밭야구장,03,06,중구,"대전광역시 중구 대종로 373 (부사동, 한밭종합운동장 80구2155)",대전광역시 중구 부사동 177번지 1호 한밭종합운동장 80구2155,36.3172026,127.4285703,1,10000000원,2016-04-04,2019-12-31,야구 비시즌,18:30,20:30,00:00,00:00,,,,,,,,,,,,,,,,,,,,,,,,,치킨 외,대전 중구청 위생과,042-606-6106,2019-04-09,3650000,대전광역시 중구
한밭야구장,03,06,중구,"대전광역시 중구 대종로 373 (부사동, 89구9540)",대전광역시 중구 부사동 177번지 1호 89구9540,36.3172026,127.4285703,1,10000000원,2016-04-07,2020-02-28,야구 비시즌,18:30,20:30,00:00,00:00,,,,,,,,,,,,,,,,,,,,,,,,,치킨 외,대전 중구청 위생과,042-606-6106,2019-04-09,3650000,대전광역시 중구
한밭야구장,03,06,중구,"대전광역시 중구 대종로 373 (부사동, 이글스파크내, 82가7052)","대전광역시 중구 부사동 209번지 1호 이글스파크내, 82가7052",36.3172026,127.4285703,1,10000000원,2017-04-03,2019-11-30,야구 비시즌,18:30,20:30,00:00,00:00,,,,,,,,,,,,,,,,,,,,,,,,,치킨 외,대전 중구청 위생과,042-606-6106,2019-04-09,3650000,대전광역시 중구
문화시설,03,14,순천시,전라남도 순천시  환선로 133,전라남도 순천시 석현동 62-3,34.9626152,127.4871074,0,"""314,250""",2016-07-21,2016-07-21,0,00:00,00:00,00:00,00:00,00:00,00:00,00:00,00:00,00:00,00:00,00:00,00:00,00:00,00:00,00:00,00:00,00:00,00:00,00:00,00:00,00:00,00:00,00:00,00:00,00:00,00:00,00:00,,주류,전략기획과 규제개혁담당,061-749-5564,2018-08-31,4820000,전라남도 순천시
유원시설,99,14,순천시,전라남도 순천시 석현동 549-1,전라남도 순천시 석현동 549-1,34.9694132,127.4872612,1,"""314,250""",2018-04-20,2018-04-20,없음,10:00,20:00,10:00,20:00,10:00,20:00,10:00,20:00,10:00,20:00,,,,,,,,,,,,,,,,,,,주류,전략기획과 규제개혁담당,061-749-5564,2018-08-31,4820000,전라남도 순천시
남광주시장,99,05,동구,광주광역시 동구 제봉로7,광주광역시 동구 학동55,35.1389369645,126.921872948,8,0,2016-09-09,2019-01-16,월요일+화요일+수요일+목요일,18:00,23:00,18:00,23:00,18:00,23:00,18:00,23:00,18:00,23:00,18:00,23:00,18:00,23:00,18:00,23:00,18:00,23:00,18:00,23:00,18:00,23:00,18:00,23:00,18:00,23:00,18:00,23:00,주류,광주광역시 동구,062-608-2463,2018-09-19,3590000,광주광역시 동구
아시아문화전당,01,05,동구,광주광역시 동구 문화전당로38,광주광역시 동구 광산동 13,35.1469145949,126.91999536,5,0,2017-08-24,2018-11-30,월요일+화요일+수요일+목요일,17:00,21:00,17:00,21:00,17:00,21:00,17:00,21:00,17:00,21:00,17:00,21:00,17:00,21:00,17:00,21:00,17:00,21:00,17:00,21:00,17:00,21:00,17:00,21:00,17:00,21:00,17:00,21:00,주류,광주광역시 동구,062-608-2463,2018-09-19,3590000,광주광역시 동구
영남이공대학교 기계공학관 맞은편 공터,06,03,남구,대구광역시 남구 현충로 170,대구광역시 남구 대명동 317-1 영남이공대학교,35.8471617285,128.586548719,1,0,2018-03-02,2018-12-15,2018.6.24~8.26,11:00,14:00,00:00,00:00,,,,,11:00,14:00,11:00,14:00,11:00,14:00,11:00,14:00,,,11:00,14:00,11:00,14:00,11:00,14:00,11:00,14:00,11:00,14:00,,대구시남구청,053-664-2765,2018-08-27,3440000,대구광역시 남구
우치공원,04,05,북구,광주광역시 북구 우치로 677(생용동),광주광역시 북구 생용동 90번지,35.225792,126.896034,1,"년28,000원",2016-04-19,2018-04-18,평일,00:00,00:00,11:00,17:00,11:00,17:00,11:00,17:00,11:00,17:00,10:00,20:00,10:00,20:00,10:00,18:00,10:00,18:00,10:00,18:00,10:00,18:00,10:00,18:00,10:00,18:00,11:00,17:00,,광주광역시 우치공원,062-613-5860,2019-03-05,3620000,광주광역시 북구
원동문화생태공원(원동A),05,16,양산시,,경상남도 양산시 원동면 용당리 566,35.3684250638,128.904450968,1,공시지가(원) × 면적 × 1(년) × 0.015,2016-03-22,2020-12-31,연중무휴,09:00,19:00,09:00,19:00,,,,,,,,,,,,,,,,,,,,,,,,,,양산시,055-392-2824,2018-12-14,5380000,경상남도 양산시
서룡수변공원(서룡A),05,16,양산시,,경상남도 양산시 원동면 서룡리 586-3,35.3374618788,128.956076892,1,공시지가(원) × 면적 × 1(년) × 0.015,2016-04-04,2020-12-31,연중무휴,09:00,19:00,09:00,19:00,,,,,,,,,,,,,,,,,,,,,,,,,,양산시,055-392-2824,2018-12-14,5380000,경상남도 양산시
서룡수변공원(서룡B),05,16,양산시,,경상남도 양산시 원동면 서룡리 586-3,35.3374618788,128.956076892,1,공시지가(원) × 면적 × 1(년) × 0.015,2016-03-25,2020-12-31,연중무휴,09:00,19:00,09:00,19:00,,,,,,,,,,,,,,,,,,,,,,,,,,양산시,055-392-2824,2018-12-14,5380000,경상남도 양산시
황산문화체육공원(황산A),05,16,양산시,,경상남도 양산시 물금읍 물금리 640-12,35.3104294768,128.978081761,1,공시지가(원) × 면적 × 1(년) × 0.015,2016-04-22,2020-12-31,연중무휴,09:00,19:00,09:00,19:00,,,,,,,,,,,,,,,,,,,,,,,,,,양산시,055-392-2824,2018-12-14,5380000,경상남도 양산시
황산문화체육공원(황산B),05,16,양산시,,경상남도 양산시 물금읍 물금리 214,35.2980205065,128.989615963,1,공시지가(원) × 면적 × 1(년) × 0.015,2016-04-21,2020-12-31,연중무휴,09:00,19:00,09:00,19:00,,,,,,,,,,,,,,,,,,,,,,,,,,양산시,055-392-2824,2018-12-14,5380000,경상남도 양산시
황산문화체육공원(황산C),05,16,양산시,,경상남도 양산시 물금읍 물금리 171-4,35.3020521557,128.98995213,1,공시지가(원) × 면적 × 1(년) × 0.015,2016-04-29,2020-12-31,연중무휴,09:00,19:00,09:00,19:00,,,,,,,,,,,,,,,,,,,,,,,,,,양산시,055-392-2824,2018-12-14,5380000,경상남도 양산시
황산문화체육공원(황산D)),05,16,양산시,,경상남도 양산시 물급읍 증산리 291,,,1,공시지가(원) × 면적 × 1(년) × 0.015,2016-04-25,2020-12-31,연중무휴,09:00,19:00,09:00,19:00,,,,,,,,,,,,,,,,,,,,,,,,,,양산시,055-392-2824,2018-12-14,5380000,경상남도 양산시
가산수변공원,05,16,양산시,,경상남도 양산시 동면 가산리 759,35.2942449658,129.019060069,1,공시지가(원) × 면적 × 1(년) × 0.015,2019-01-01,2020-12-31,연중무휴,09:00,19:00,09:00,19:00,,,,,,,,,,,,,,,,,,,,,,,,,,양산시,055-392-2824,2018-12-14,5380000,경상남도 양산시
동해시웰빙스포츠타운 일원,03,10,동해시,강원도 동해시 덕골길 10(천곡동),강원도 동해시 천곡동 363-1,37.5163361,129.1031991,0,"""월 800,000원""",2016-11-01,2017-01-31,토요일+일요일+공휴일,09:00,20:00,10:00,21:00,10:00,19:00,10:00,19:00,10:00,19:00,10:00,19:00,10:00,20:00,10:00,20:00,10:00,21:00,10:00,21:00,09:00,20:00,09:00,20:00,10:00,19:00,10:00,19:00,병입 음료,동해시,033-530-2122,2018-09-01,4210000,강원도 동해시
팔달문 차없는 거리 및 지동교,99,09,수원시,경기도 수원시 팔달구 팔달문로 9,경기도 수원시 팔달구 팔달로2가 48-1번지,37.277718,127.018472,18,42만원/년,2018-07-17,2019-12-31,없음,17:00,22:00,17:00,22:00,17:00,22:00,17:00,22:00,17:00,22:00,17:00,22:00,17:00,22:00,17:00,22:00,17:00,22:00,17:00,22:00,17:00,22:00,17:00,22:00,17:00,22:00,17:00,22:00,"""기선정메뉴, 주류""",수원시청,031-228-3269,2018-08-02,3740000,경기도 수원시
호암근린공원,04,11,충주시,충청북도 충주시 상아배이길 84,충청북도 충주시 호암동 산76-3,36.9604513051,127.9224554434,1,"27,700",2015-10-23,2019-10-30,일정하지않음,10:00,22:00,10:00,22:00,10:00,22:00,10:00,22:00,10:00,22:00,10:00,22:00,10:00,22:00,10:00,22:00,10:00,22:00,10:00,22:00,10:00,22:00,10:00,22:00,10:00,22:00,10:00,22:00,주류,충주시청 위생과,043-850-3471,2019-04-23,4390000,충청북도 충주시
자유시장아케이트내,07,11,충주시,충청북도 충주시 충의동 286번지,충청북도 충주시 충의동 286번지,36.9737847107,127.9296689256,1,0,2019-04-05,2019-12-26,일정하지않음,17:00,00:00,17:00,00:00,,,,,,,17:00,00:00,17:00,00:00,17:00,00:00,08:00,00:00,17:00,00:00,17:00,00:00,17:00,00:00,17:00,00:00,17:00,00:00,주류,충주시청 위생과,043-850-3471,2019-04-23,4390000,충청북도 충주시
평택시청 앞 광장,08,09,평택시,경기도 평택시 경기대로 245,,36.9923004756,127.112526685,,"""년 777,750원""",2018-06-11,2020-06-10,연중무휴,08:00,22:00,08:00,22:00,,,,,,,,,,,,,,,,,,,,,,,,,,평택시,031-8024-2263,2018-07-31,3910000,경기도 평택시
이충레포츠공원,03,09,평택시,경기도 평택시 장안웃길 149,,37.0660589332,127.070708126,,"""년 278,250원""",2017-07-26,2019-07-25,연중무휴,08:00,22:00,08:00,22:00,,,,,,,,,,,,,,,,,,,,,,,,,,평택시,031-8024-2263,2018-07-31,3910000,경기도 평택시
이충레포츠공원,03,09,평택시,경기도 평택시 장안웃길 149,,37.0660589332,127.070708126,,"""년 278,250원""",2017-09-11,2019-09-10,연중무휴,08:00,22:00,08:00,22:00,,,,,,,,,,,,,,,,,,,,,,,,,,평택시,031-8024-2263,2018-07-31,3910000,경기도 평택시
안중시장 내,99,09,평택시,경기도 평택시 안중읍 안중리 262-56,,36.9871017442,126.927442001,,"""년 188,880원""",2017-10-16,2019-10-15,연중무휴,08:00,22:00,08:00,22:00,,,,,,,,,,,,,,,,,,,,,,,,,,평택시,031-8024-2263,2018-07-31,3910000,경기도 평택시
안중시장 고객센터 앞,99,09,평택시,경기도 평택시 안중읍 안중리 268-5,,36.9876320022,126.92813343,,"""년 241,560원""",2017-09-21,2017-09-20,연중무휴,08:00,22:00,08:00,22:00,,,,,,,,,,,,,,,,,,,,,,,,,,평택시,031-8024-2263,2018-07-31,3910000,경기도 평택시
안중시장 고객센터 앞,99,09,평택시,경기도 평택시 안중읍 안중리 268-5,,36.9876320022,126.92813343,,"""년 241,560원""",2017-12-08,2019-12-07,연중무휴,08:00,22:00,08:00,22:00,,,,,,,,,,,,,,,,,,,,,,,,,,평택시,031-8024-2263,2018-07-31,3910000,경기도 평택시
사라봉공원,04,17,제주시,제주특별자치도 제주시 건입동 505번지 2호,제주특별자치도 제주시 건입동 505번지 2호,33.5157689169,126.547336369,1,"""368,280/년""",2016-05-11,2019-05-10,연중무휴,10:00,18:00,10:00,18:00,,,,,,,,,,,,,,,,,,,,,,,,,,제주시 위생관리과,064-728-2628,2018-08-27,6510000,제주특별자치도 제주시
구좌 해안도로,08,17,제주시,제주특별자치도 제주시 구좌읍 종달리 724번지 1호,제주특별자치도 제주시 구좌읍 종달리 724번지 1호,33.4874284822,126.902362907,1,"""11,000,000/년""",2017-07-24,2022-05-15,연중무휴,09:00,18:00,09:00,18:00,,,,,,,,,,,,,,,,,,,,,,,,,,제주시 위생관리과,064-728-2628,2018-08-27,6510000,제주특별자치도 제주시
수목원테마파크,01,17,제주시,제주특별자치도 제주시 은수길 69 (연동),,33.4706503551,126.488217758,16,없음,2018-05-01,2018-12-31,연중무휴,19:00,22:00,19:00,22:00,,,,,,,,,,,,,,,,,,,,,,,,,,제주시 위생관리과,064-728-2628,2018-08-27,6510000,제주특별자치도 제주시
경마공원,03,17,제주시,제주특별자치도 제주시 애월읍 평화로 2144,,33.4087624988,126.395553194,1,"""396,000원/년""",2018-01-08,2020-01-07,연중무휴,10:00,18:00,10:00,18:00,,,,,,,,,,,,,,,,,,,,,,,,,,제주시 위생관리과,064-728-2628,2018-08-27,6510000,제주특별자치도 제주시
경마공원,03,17,제주시,제주특별자치도 제주시 애월읍 평화로 2144,,33.4087624988,126.395553194,3,없음,2018-07-21,2018-09-02,연중무휴,10:00,18:00,10:00,18:00,,,,,,,,,,,,,,,,,,,,,,,,,,제주시 위생관리과,064-728-2628,2018-08-27,6510000,제주특별자치도 제주시
자연학습공원,04,09,의왕시,"""경기도 의왕시 왕송못동로 307 (월암동, 자연학습공원 내)""",경기도 의왕시 월암동 543번지 3호 자연학습공원 내,37.3071062747,126.953147353,1,"""년 39,930원""",2016-07-07,2018-07-06,월요일+화요일+수요일+목요일+금요일,00:00,00:00,10:00,19:00,,,,,,,,,,,,,,,,,,,,,,,,,,의왕시,031-345-2821,2018-08-01,4030000,경기도 의왕시
자연학습공원,04,09,의왕시,"""경기도 의왕시 왕송못동로 307 (월암동, 월암동 자연학습공원 내)""",경기도 의왕시 월암동 543번지 3호 월암동 자연학습공원 내,37.3071062747,126.953147353,1,"""년 39,930원""",2016-08-25,2018-08-16,월요일+화요일+수요일+목요일+금요일,00:00,00:00,10:00,19:00,,,,,,,,,,,,,,,,,,,,,,,,,,의왕시,031-345-2821,2018-08-01,4030000,경기도 의왕시
왕송호수공원,04,09,의왕시,,경기도 의왕시 초평동 278번지 9호 왕송호수공원 내,,,1,"""년 33,290원""",2016-12-20,2019-12-14,월요일+화요일+수요일+목요일+금요일,00:00,00:00,10:00,19:00,,,,,,,,,,,,,,,,,,,,,,,,,,의왕시,031-345-2821,2018-08-01,4030000,경기도 의왕시
왕송호수공원,04,09,의왕시,,경기도 의왕시 초평동 278번지 9호 왕송호수공원 내,,,1,"""년 33,290원""",2016-12-05,2019-12-04,월요일+화요일+수요일+목요일+금요일,00:00,00:00,10:00,19:00,,,,,,,,,,,,,,,,,,,,,,,,,,의왕시,031-345-2821,2018-08-01,4030000,경기도 의왕시
의왕시청,08,09,의왕시,"""경기도 의왕시 시청로 11 (고천동, 의왕시청)""",경기도 의왕시 고천동 171번지 의왕시청,37.3453186079,126.967989175,1,"""년 349,910원""",2017-03-20,2018-08-31,월요일+화요일+수요일+목요일+금요일,00:00,00:00,10:00,19:00,,,,,,,,,,,,,,,,,,,,,,,,,,의왕시,031-345-2821,2018-08-01,4030000,경기도 의왕시
자연학습공원,04,09,의왕시,"""경기도 의왕시 왕송못동로 307 (월암동, 자연학습공원 내)""",경기도 의왕시 월암동 543번지 3호 자연학습공원 내,37.3071062747,126.953147353,1,"""년 39,930원""",2017-06-07,2018-11-03,월요일+화요일+수요일+목요일+금요일,00:00,00:00,10:00,19:00,,,,,,,,,,,,,,,,,,,,,,,,,,의왕시,031-345-2821,2018-08-01,4030000,경기도 의왕시
청계TG졸음쉼터,07,09,의왕시,"""경기도 의왕시 안양판교로 476 (청계동, 서울외곽고속도로 청계TG졸음쉼터 내)""",경기도 의왕시 청계동 산 8번지 18호 서울외곽고속도로 청계TG졸음쉼터 내,37.3932698389,127.022310269,1,"""월 100,000원""",2018-02-23,2019-02-28,연중무휴,08:00,19:00,08:00,19:00,,,,,,,,,,,,,,,,,,,,,,,,,,의왕시,031-345-2821,2018-08-01,4030000,경기도 의왕시
청계산 공영주차장,99,09,의왕시,,경기도 의왕시 청계동 77번지 청계산 공영주차장,37.3867725897,127.016680444,1,"""년 20,790원""",2017-09-27,2018-12-31,월요일+화요일+수요일+목요일+금요일,00:00,00:00,10:00,19:00,,,,,,,,,,,,,,,,,,,,,,,,,,의왕시,031-345-2821,2018-08-01,4030000,경기도 의왕시
기장군청,08,02,기장군,부산광역시 기장군 기장대로 560,부산광역시 기장군 기장읍 신천리 1,35.2434819712,129.2229544987,1,연327750원,2017-03-03,2021-01-24,연중무휴,08:30,18:00,08:30,18:00,08:30,18:00,08:30,18:00,08:30,18:00,08:30,18:00,08:30,18:00,08:30,18:00,08:30,18:00,08:30,18:00,08:30,18:00,08:30,18:00,08:30,18:00,08:30,18:00,,기장군,051-709-4162,2019-01-23,3400000,부산광역시 기장군
국유지,08,02,기장군,부산광역시 기장군 기장읍 죽성리 134-10,부산광역시 기장군 기장읍 죽성리 134-10,35.2405513020,129.2481283339,1,연171950원,2018-07-26,2023-07-04,연중무휴,10:00,20:00,10:00,20:00,10:00,20:00,10:00,20:00,10:00,20:00,10:00,20:00,10:00,20:00,10:00,20:00,10:00,20:00,10:00,20:00,10:00,20:00,10:00,20:00,10:00,20:00,10:00,20:00,,한국자산관리공사,051-794-4669,2019-01-23,3400000,부산광역시 기장군
완산쳬련공원,03,13,전주시 완산구,전라북도 전주시 완산구 모악산자락길 22(중인동),전라북도 전주시 완산구 중인동 361-1,35.767450,127.101600,1,"월 55,000원",2018-10-15,2019-10-14,연중무휴,10:00,18:00,08:00,18:00,,,,,,,,,,,,,,,,,,,,,,,,,,전라북도 전주시시설관리공단 공원운영부,063-239-2568,2018-10-19,4640000,전라북도 전주시
상림고운광장,04,16,함양군,경상남도 함양군 함양읍 교산리 1041번지,경상남도 함양군 함양읍 교산리 1041번지,35.525150,127.721016,1,"년9,400원",2016-10-10,2019-10-31,연중무휴,09:00,21:00,09:00,21:00,10:00,19:00,10:00,19:00,10:00,19:00,09:00,21:00,09:00,21:00,09:00,21:00,09:00,21:00,09:00,21:00,09:00,21:00,09:00,21:00,09:00,21:00,10:00,19:00,없음,경상남도 함양군,055-960-5532,2018-10-15,5460000,경상남도 함양군
경산생활체육공원,04,15,경산시,"""경상북도 경산시 남매로 100 (상방동, 경산생활체육공원 일원)""",경상북도 경산시 상방동 10번지 경상생활체육공원 일원,35.82111702,128.743774781,1,0,2017-06-20,2019-05-31,연중무휴,10:00,18:00,10:00,18:00,10:00,18:00,10:00,18:00,10:00,18:00,10:00,18:00,10:00,18:00,10:00,18:00,10:00,18:00,10:00,18:00,10:00,18:00,10:00,18:00,10:00,18:00,10:00,18:00,,경상북도 경산시 보건소,053-810-6337,2018-09-05,5130000,경상북도 경산시
대구대학교,06,15,경산시,경상북도 경산시 진량읍 대구대로 201 (조형예술대학 5호관 앞),경상북도 경산시 진량읍 내리리 15번지 조형예술대학 5호관 앞,35.904537694,128.842814453,1,0,2017-10-19,2018-09-19,연중무휴,10:00,18:00,10:00,18:00,10:00,18:00,10:00,18:00,10:00,18:00,10:00,18:00,10:00,18:00,10:00,18:00,10:00,18:00,10:00,18:00,10:00,18:00,10:00,18:00,10:00,18:00,10:00,18:00,,경상북도 경산시 보건소,053-810-6337,2018-09-05,5130000,경상북도 경산시
삼성현역사문화공원,01,15,경산시,경상북도 경산시 남산면 삼성현공원로 59,경상북도 경산시 남산면 인흥리 250번지,35.8016890893,128.796609479,1,0,2017-11-09,2019-10-26,연중무휴,10:00,18:00,10:00,18:00,10:00,18:00,10:00,18:00,10:00,18:00,10:00,18:00,10:00,18:00,10:00,18:00,10:00,18:00,10:00,18:00,10:00,18:00,10:00,18:00,10:00,18:00,10:00,18:00,,경상북도 경산시 보건소,053-810-6337,2018-09-05,5130000,경상북도 경산시
경일대학교,06,15,경산시,"""경상북도 경산시 하양읍 가마실길 50, 경일대학교 학생회관 1층 앞주차장 18호관 편의점 앞 주차장""","""경상북도 경산시 하양읍 부호리 33번지 경일대학교 학생회관 1층 앞 주차장, 18호관 편의점 앞 주차장""",35.9110678896,128.802043976,1,0,2018-03-09,2018-12-31,연중무휴,10:00,18:00,10:00,18:00,10:00,18:00,10:00,18:00,10:00,18:00,10:00,18:00,10:00,18:00,10:00,18:00,10:00,18:00,10:00,18:00,10:00,18:00,10:00,18:00,10:00,18:00,10:00,18:00,,경상북도 경산시 보건소,053-810-6337,2018-09-05,5130000,경상북도 경산시
대구한의대학교,06,15,경산시,"""경상북도 경산시 한의대로 1, 대구한의대학교 (유곡동)""",경상북도 경산시 유곡동 290번지 1호 대구한의대학교,35.7939882475,128.777323467,1,0,2018-08-09,2019-12-31,연중무휴,10:00,18:00,10:00,18:00,10:00,18:00,10:00,18:00,10:00,18:00,10:00,18:00,10:00,18:00,10:00,18:00,10:00,18:00,10:00,18:00,10:00,18:00,10:00,18:00,10:00,18:00,10:00,18:00,,경상북도 경산시 보건소,053-810-6337,2018-09-05,5130000,경상북도 경산시
송촌체육공원,04,06,대덕구,대전광역시 대덕구 법동 138번지 3호 송촌체육공원 일원,,,,,"연 141,000원",2017-02-28,2020-02-27,연중무휴,10:00,20:00,10:00,20:00,,,,,,,,,,,,,,,,,,,,,,,,,,대전광역시 대덕구,042-608-6893,2019-04-19,3680000,대전광역시 대덕구
대덕구노인종합복지회관,08,06,대덕구,대전광역시 대덕구 계족로740번길 80 (읍내동),,36.3782583557,127.4314387090,,"연 16,730원",2017-11-24,2019-11-14,연중무휴,09:00,17:00,09:00,17:00,,,,,,,,,,,,,,,,,,,,,,,,,,대전광역시 대덕구,042-608-6893,2019-04-19,3680000,대전광역시 대덕구
신대노인종합복지관,08,06,대덕구,대전광역시 대덕구 회덕로22번길 5 (신대동),,36.3987504146,127.4204582192,,"연 56,950원",2017-11-24,2019-11-14,연중무휴,09:00,17:00,09:00,17:00,,,,,,,,,,,,,,,,,,,,,,,,,,대전광역시 대덕구,042-608-6893,2019-04-19,3680000,대전광역시 대덕구
인제군농특산물전시판매장 주차장,99,10,인제군,강원도 인제군 인제읍 비봉로 48,강원도 인제군 인제읍 상동리 430번지,38.035387,128.102706,2,"공시지가의 50/1,000",2018-05-23,2023-05-09,연중무휴,09:00,20:00,09:00,20:00,,,,,,,,,,,,,,,,,,,,,,,,,주류,인제군,033-460-2246,2019-05-02,4330000,강원도 인제군
서울외곽고속도로 김포TG내측 졸음쉼터,07,09,김포시,,경기도 김포시 고촌읍 신곡리 760-1,37.5922928,126.7594828,1,"월100,000원",2018-02-26,2020-02-29,연중무휴,08:00,19:00,08:00,19:00,,,,,,,,,,,,,,,,,,,,,,,,,주류,김포시,031-980-2253,2019-03-11,4090000,경기도 김포시
서울외곽고속도로 김포TG외측 졸음쉼터,07,09,김포시,,경기도 김포시 고촌읍 신곡리 800-1,37.5869702,126.7518781,1,"월100,000원",2018-12-15,2019-12-14,연중무휴,08:00,19:00,08:00,19:00,,,,,,,,,,,,,,,,,,,,,,,,,주류,김포시,031-980-2253,2019-03-11,4090000,경기도 김포시
경부선연곡졸음쉼터내영업허용장소,07,12,천안시 서북구,충청남도 천안시 서북구 입장면연곡리 243-5 연곡졸음쉼터,충청남도 천안시 서북구 입장면연곡리 243-5 연곡졸음쉼터,36.9544177898,127.182900499,1,매출액의4,2017-05-28,2018-11-30,연중무휴,08:00,19:00,08:00,19:00,08:00,19:00,08:00,19:00,08:00,19:00,08:00,19:00,08:00,19:00,08:00,19:00,08:00,19:00,08:00,19:00,08:00,19:00,08:00,19:00,08:00,19:00,08:00,19:00,,한국도로공사,042-722-6046,2018-08-16,4490000,충청남도 천안시
대명리조트,01,12,천안시 동남구,충청남도 천안시 동남구 성남면 종합휴양지로 200 (대명리조트),충청남도 천안시 동남구 성남면 용원리 672번지 대명리조트,36.7573121522,127.224096112,1,매출액의22,2018-07-02,2030-01-01,연중무휴,09:00,19:00,09:00,19:00,,,,,,,,,,,,,,,,,,,,,,,,,,천안시 동남구청 환경위생과,041-521-4330,2018-08-16,4490000,충청남도 천안시
대명리조트,01,12,천안시 동남구,충청남도 천안시 동남구 성남면 종합휴양지로 200 (대명리조트),충청남도 천안시 동남구 성남면 용원리 672번지 대명리조트,36.7573121522,127.224096112,1,매출액의22,2018-07-02,2030-01-01,연중무휴,09:00,19:00,09:00,19:00,,,,,,,,,,,,,,,,,,,,,,,,,,천안시 동남구청 환경위생과,041-521-4331,2018-08-16,4490000,충청남도 천안시
갈산공원,04,09,양평군,,경기도 양평군 양평읍 양근리 234번지 2호 (푸드트럭),37.4866579266,127.49323925,1,"""월25,000원""",2016-10-01,2018-09-30,연중무휴,16:00,22:00,10:00,18:00,,,,,,,,,,,,,,,,,,,,,,,,,,경기도양평군,031-770-2234,2018-08-23,4170000,경기도 양평군
양서친환경도서관,99,09,양평군,,경기도 양평군 양서면 용담리 535번지 15호,,,1,"""년127,470원""",2017-07-01,2022-04-30,연중무휴,10:00,18:00,10:00,18:00,,,,,,,,,,,,,,,,,,,,,,,,,,경기도양평군,031-770-2234,2018-08-23,4170000,경기도 양평군
양평시장,99,09,양평군,경기도 양평군 양평읍 양평장터길 15 (양평공설시장내),경기도 양평군 양평읍 양근리 166번지 9호,37.4909314889,127.492561764,1,일5000원,2017-07-15,2018-07-14,매주토요일,00:00,00:00,10:00,22:00,,,,,,,,,,,,,,,,,,,,,,,,,,경기도양평군,031-770-2234,2018-08-23,4170000,경기도 양평군
라온광장,99,09,양평군,,경기도 양평군 양평읍 양근리 658번지 양평읍사무소 주차장내,37.4865591858,127.493582329,1,"""년166,610원""",2017-09-01,2019-08-31,연중무휴,10:00,18:00,10:00,18:00,,,,,,,,,,,,,,,,,,,,,,,,,,경기도양평군,031-770-2234,2018-08-23,4170000,경기도 양평군
의림지 공영주차장,02,11,제천시,충청북도 제천시 모산동 210번지 공영주차장,충청북도 제천시 모산동 210번지 공영주차장,37.1758154,128.2114765,2,월180000,2017-06-07,2019-06-06,연중무휴,18:00,22:00,18:00,22:00,,,,,,,,,,,,,,,,,,,,,,,,,없음,제천시청,043-641-3183,2018-08-24,4400000,충청북도 제천시
의성마늘테마파크,04,15,의성군,경상북도 의성군 의성읍 경북대로 5690,경상북도 의성군 의성읍 원당리 208-1,36.3507875,128.6606291,,23570원/년(번호2-5),2016-12-10,2018-12-09,이동영업(번호2-5),00:00,00:00,00:00,00:00,00:00,00:00,00:00,00:00,00:00,00:00,00:00,00:00,00:00,00:00,00:00,00:00,00:00,00:00,00:00,00:00,00:00,00:00,00:00,00:00,00:00,00:00,00:00,00:00,,경상북도 의성군청,054-830-6171,2019-01-31,5150000,경상북도 의성군
의성종합운동장,03,15,의성군,,경상북도 의성군 의성읍 중리리 549,36.3572844,128.6932898,,23570원/년(번호2-5),2016-12-10,2018-12-09,이동영업(번호2-5),00:00,00:00,00:00,00:00,00:00,00:00,00:00,00:00,00:00,00:00,00:00,00:00,00:00,00:00,00:00,00:00,00:00,00:00,00:00,00:00,00:00,00:00,00:00,00:00,00:00,00:00,00:00,00:00,,경상북도 의성군청,054-830-6171,2019-01-31,5150000,경상북도 의성군
의성군농업기술센터,99,15,의성군,,경상북도 의성군 봉양면 분토리 928,36.3229858,128.637201,,23570원/년(번호2-5),2016-12-10,2018-12-09,이동영업(번호2-5),00:00,00:00,00:00,00:00,00:00,00:00,00:00,00:00,00:00,00:00,00:00,00:00,00:00,00:00,00:00,00:00,00:00,00:00,00:00,00:00,00:00,00:00,00:00,00:00,00:00,00:00,00:00,00:00,,경상북도 의성군청,054-830-6171,2019-01-31,5150000,경상북도 의성군
의성조문국사적지,04,15,의성군,,경상북도 의성군 금성면 대리리 377 - 2,36.2739594,128.668181,1,23570원/년(번호2-5),2018-12-10,2021-12-09,이동영업(번호2-5),00:00,00:00,00:00,00:00,00:00,00:00,00:00,00:00,00:00,00:00,00:00,00:00,00:00,00:00,00:00,00:00,00:00,00:00,00:00,00:00,00:00,00:00,00:00,00:00,00:00,00:00,00:00,00:00,,경상북도 의성군청,054-830-6171,2019-01-31,5150000,경상북도 의성군
빙계군립공원,04,15,의성군,,경상북도 의성군 춘산면 빙계리 896,36.2291709,128.756566,,23570원/년(번호2-5),2016-12-10,2018-12-09,이동영업(번호2-5),00:00,00:00,00:00,00:00,00:00,00:00,00:00,00:00,00:00,00:00,00:00,00:00,00:00,00:00,00:00,00:00,00:00,00:00,00:00,00:00,00:00,00:00,00:00,00:00,00:00,00:00,00:00,00:00,,경상북도 의성군청,054-830-6171,2019-01-31,5150000,경상북도 의성군
팜랜드,01,09,안성시,경기도 안성시 공도읍 대신두길 28,경기도 안성시 공도읍 신두리 451,36.9920809,127.1931869,1,-,2015-05-29,2025-05-28,-,00:00,23:59,00:00,23:59,,,,,,,,,,,,,,,,,,,,,,,,,-,농업협동조합중앙회,031-8053-7952,2019-03-31,4080000,경기도 안성시
안성시종합운동장,03,09,안성시,경기도 안성시 보개면 종합운동장로 203,경기도 안성시 보개면 양복리 238-1,37.0147795,127.3230533,1,-,2015-12-11,2025-12-10,-,00:00,23:59,00:00,23:59,,,,,,,,,,,,,,,,,,,,,,,,,-,안성시 시설관리공단,031-672-1234,2019-03-31,4080000,경기도 안성시
한경대,06,09,안성시,경기도 안성시 중앙로 327,경기도 안성시 석정동 63번지 1,37.0101998,127.2637721,1,-,2018-10-24,2021-10-23,-,00:00,23:59,00:00,23:59,,,,,,,,,,,,,,,,,,,,,,,,,,한경대,031-678-5734,2019-03-31,4080000,경기도 안성시
안성맞춤랜드,01,09,안성시,경기도 안성시 보개면 남사당로 198,경기도 안성시 보개면 복평리 294번지 1,37.0328667,127.3078061,1,-,2019-03-12,2019-08-30,-,00:00,23:59,00:00,23:59,,,,,,,,,,,,,,,,,,,,,,,,,,안성시 농업기술센터,031-678-5734,2019-03-31,4080000,경기도 안성시
여주종합운동장,03,09,여주시,경기도 여주시 영릉로 123,경기도 여주시 월송동 1,37.2932681617,127.6244654221,1,0,2016-04-01,2019-03-31,연중무휴,00:00,00:00,00:00,00:00,,,,,,,,,,,,,,,,,,,,,,,,,,여주시,031-887-2654,2019-03-29,5700000,경기도 여주시
여주프리미엄아울렛,99,09,여주시,경기도 여주시 명품로 360 여주프리미엄아울렛 내 EAST 중앙광장 일대,경기도 여주시 상거동 460,37.2459480522,127.6123847586,10,0,2018-06-01,2018-08-31,계약일자에만 영업,00:00,00:00,00:00,00:00,,,,,,,,,,,,,,,,,,,,,,,,,,여주시,031-887-2654,2019-03-29,5700000,경기도 여주시
375st 여주아울렛,99,09,여주시,경기도 여주시 명품로 308-19 375st 여주아울렛 내 3블럭 대형주차장 일대,경기도 여주시 상거동 375-63,37.2430186886,127.6164003230,3,0,2018-07-21,2018-08-26,알수없음,00:00,00:00,00:00,00:00,,,,,,,,,,,,,,,,,,,,,,,,,,여주시,031-887-2654,2019-03-29,5700000,경기도 여주시
상무시민공원,04,05,서구,광주광역시 서구 상무공원로 101,광주광역시 서구 치평동 1162,35.153804,126.840958,1,109690,2017-05-09,2019-05-08,없음,10:00,19:00,10:00,19:00,10:00,17:00,10:00,17:00,10:00,19:00,10:00,19:00,10:00,19:00,10:00,21:00,10:00,21:00,10:00,21:00,10:00,21:00,10:00,19:00,10:00,17:00,10:00,17:00,영업신고 외 품목 판매금지,광주광역시 서구청,062-360-7724,2019-02-28,3600000,광주광역시 서구
풍암호수공원,04,05,서구,,광주광역시 서구 풍암동 491-3,35.126653,126.868935,1,52660,2017-05-15,2019-05-14,없음,10:00,19:00,10:00,19:00,10:00,17:00,10:00,17:00,10:00,19:00,10:00,19:00,10:00,19:00,10:00,21:00,10:00,21:00,10:00,21:00,10:00,21:00,10:00,19:00,10:00,17:00,10:00,17:00,영업신고 외 품목 판매금지,광주광역시 서구청,062-360-7724,2019-02-28,3600000,광주광역시 서구
수성랜드,01,03,수성구,대구광역시 수성구 용학로 35-5(상동),대구광역시 수성구 상동 725번지,35.8268314197,128.61284255,1,계약에 의함,2017-09-18,2018-12-31,토요일+일요일,00:00,00:00,00:00,00:00,,,,,,,,,,,,,,,,,,,,,,,,,,대구광역시 수성구 식품위생과,053-666-2763,2018-08-24,3460000,대구광역시 수성구
포항대학교 학교주차장,06,15,포항시 북구,경상북도 포항시 북구 흥해읍 신덕로 60,경상북도 포항시 북구 죽천리 산55,36.041824,129.365649,1,0,2018-04-05,2023-04-04,연중무휴,10:00,22:00,10:00,22:00,,,,,,,,,,,,,,,,,,,,,,,,,,포항시 북구청,054-240-7184,2018-08-23,5020000,경상북도 포항시
영일대해수욕장,02,15,포항시 북구,경상북도 포항시 북구 해안로,경상북도 포항시 북구 두호동 685-1 영일대해수욕장 제2주차장 또는 지정장소,36.057292,129.378058,1,0,2018-07-01,2018-10-31,연중무휴,10:00,22:00,10:00,22:00,,,,,,,,,,,,,,,,,,,,,,,,,,포항시 북구청,054-240-7184,2018-08-23,5020000,경상북도 포항시
칠포해수욕장,02,15,포항시 북구,경상북도 포항시 북구 흥해읍 해안로,경상북도 포항시 북구 흥해읍 칠포리 197-20 칠포해수욕장 일원,36.131881,129.397892,1,0,2018-07-01,2018-10-31,연중무휴,10:00,22:00,10:00,22:00,,,,,,,,,,,,,,,,,,,,,,,,,,포항시 북구청,054-240-7184,2018-08-23,5020000,경상북도 포항시
송림테마거리,99,15,포항시 남구,경상북도 포항시 남구 송도해안길,경상북도 포항시 남구 송도동 254-100,36.043227,129.375361,5,0,2018-05-05,2018-05-07,연중무휴,10:00,22:00,10:00,22:00,,,,,,,,,,,,,,,,,,,,,,,,,,포항시 남구청,054-270-7184,2018-08-23,5020000,경상북도 포항시
형산강변 연일대교 하단 일원,99,15,포항시 남구,경상북도 포항시 남구 형산강남로,경상북도 포항시 남구 연일읍 생지리 459-3,36.000811,129.342361,3,0,2017-10-20,2017-10-22,연중무휴,10:00,22:00,10:00,22:00,,,,,,,,,,,,,,,,,,,,,,,,,,포항시 남구청,054-270-7184,2018-08-23,5020000,경상북도 포항시
포항종합공설운동장일대,03,15,포항시 남구,경상북도 포항시 남구 희망대로 810(대도동),경상북도 포항시 남구 대도동 313-1,36.009099,129.363453,1,0,2017-11-12,2017-11-13,연중무휴,10:00,22:00,10:00,22:00,,,,,,,,,,,,,,,,,,,,,,,,,,포항시 남구청,054-270-7184,2018-08-23,5020000,경상북도 포항시
포항운전면허시험장,99,15,포항시 남구,경상북도 포항시 남구 오천읍 냉천로 656,경상북도 포항시 남구 오천읍 문덕리 1036-6,35.9423187356,129.392403,1,0,2017-11-27,2018-11-01,연중무휴,10:00,22:00,10:00,22:00,,,,,,,,,,,,,,,,,,,,,,,,,,포항시 남구청,054-270-7184,2018-08-23,5020000,경상북도 포항시
선문대학교 내,06,12,아산시,충청남도 아산시 탕정면 선문로221번길 70,,36.7983500,127.074924,1,0,2016-04-22,2019-02-28,토요일+일요일+공휴일,10:00,17:00,00:00,00:00,,,,,,,,,,,,,,,,,,,,,,,,,,아산시,041-540-2612,2018-09-21,4520000,충청남도 아산시
이순신종합운동장,03,12,아산시,충청남도 아산시 남부로 370-24,,36.771877,127.022383,2,관람객수에 따라 다름(경기시 평균 120000),2018-02-28,2018-12-31,경기없는날,00:00,00:00,17:00,22:00,,,,,,,,,,,,,,,,,,,,,,,,,,아산시,041-540-2612,2018-09-21,4520000,충청남도 아산시
사적지 제229호 충의사 주차장,02,12,예산군,충청남도 예산군 덕산면 시량리 119-1,,36.6864739819,126.651781085,,0,2017-03-15,2099-12-31,연중무휴,00:00,00:00,00:00,00:00,,,,,,,,,,,,,,,,,,,,,,,,,,충청남도 예산군,041-339-7482,2018-09-27,4610000,충청남도 예산군
유형문화재 제43호 추사고택 주차장,02,12,예산군,충청남도 예산군 신암면 추사고택로 261,,36.7469018097,126.799816095,,0,2017-03-15,2099-12-31,연중무휴,00:00,00:00,00:00,00:00,,,,,,,,,,,,,,,,,,,,,,,,,,충청남도 예산군,041-339-7482,2018-09-27,4610000,충청남도 예산군
예당관광지 주차장,02,12,예산군,충청남도 예산군 응봉면 후사리 448-1,,36.637525551,126.799222791,,0,2017-03-15,2099-12-31,연중무휴,00:00,00:00,00:00,00:00,,,,,,,,,,,,,,,,,,,,,,,,,,충청남도 예산군,041-339-7482,2018-09-27,4610000,충청남도 예산군
의좋은형제공원 주차장,02,12,예산군,충청남도 예산군 대흥면 예당로 885,,36.6082655255,126.791827697,,0,2017-03-15,2099-12-31,연중무휴,00:00,00:00,00:00,00:00,,,,,,,,,,,,,,,,,,,,,,,,,,충청남도 예산군,041-339-7482,2018-09-27,4610000,충청남도 예산군
덕산도립공원 수덕사 주차장,04,12,예산군,충청남도 예산군 덕산면 사천리 20,,36.6629007993,126.622309069,,0,2017-03-15,2099-12-31,연중무휴,00:00,00:00,00:00,00:00,,,,,,,,,,,,,,,,,,,,,,,,,,충청남도 예산군,041-339-7482,2018-09-27,4610000,충청남도 예산군
무한천체육공원 주차장,04,12,예산군,충청남도 예산군 예산읍 산성리 435-2,,36.6850339992,126.822384846,,0,2017-03-15,2099-12-31,연중무휴,00:00,00:00,00:00,00:00,,,,,,,,,,,,,,,,,,,,,,,,,,충청남도 예산군,041-339-7482,2018-09-27,4610000,충청남도 예산군
국립공주대학교 산업과학대학 주차장,06,12,예산군,충청남도 예산군 예산읍 대학로 54,,36.6698868087,126.859414983,,0,2017-03-15,2099-12-31,연중무휴,00:00,00:00,00:00,00:00,,,,,,,,,,,,,,,,,,,,,,,,,,충청남도 예산군,041-339-7482,2018-09-27,4610000,충청남도 예산군
서구문화회관,99,03,서구,대구광역시 서구 당산로 403(이현동),대구광역시 서구 이현동 48-144,35.872338,128.545571,2,0,2018-03-12,2019-03-13,연중무휴,10:00,22:00,10:00,22:00,10:00,22:00,10:00,22:00,10:00,22:00,10:00,22:00,10:00,22:00,10:00,22:00,10:00,22:00,10:00,22:00,10:00,22:00,10:00,22:00,10:00,22:00,10:00,22:00,주류,대구광역시 서구,053-663-2775,2018-08-24,3430000,대구광역시 서구
칠곡보 생태공원,01,15,칠곡군,경상북도 칠곡군 석적읍 중지리 552번지,,36.018344,128.401163,1,0,2017-03-30,2019-02-28,연중무휴,00:00,00:00,00:00,00:00,00:00,00:00,00:00,00:00,00:00,00:00,00:00,00:00,00:00,00:00,00:00,00:00,00:00,00:00,00:00,00:00,00:00,00:00,00:00,00:00,00:00,00:00,00:00,00:00,,칠곡군,054-979-6674,2018-08-28,5220000,경상북도 칠곡군
관악구민종합체육센터,03,01,관악구,서울특별시 관악구 낙성대로3길 37,서울특별시 관악구 봉천동 223-9,37.473269,126.960306,,"""연 64,800원""",2018-02-01,2019-01-31,토요일+일요일,11:00,18:00,00:00,00:00,,,,,,,,,,,,,,,,,,,,,,,,,,서울특별시 관악구청,02-879-5781,2018-08-16,3200000,서울특별시 관악구
이순신공원,04,16,통영시,경상남도 통영시 정량동 682-1번지 외 1필지,경상남도 통영시 정량동 682-1번지 외 1필지,34.845109,128.441751,4,3710,2016-09-13,2018-12-21,없음,09:00,16:00,09:00,16:00,09:00,16:00,09:00,16:00,09:00,16:00,09:00,16:00,09:00,16:00,09:00,16:00,09:00,16:00,09:00,16:00,09:00,16:00,09:00,16:00,09:00,16:00,09:00,16:00,술,통영시청,055-650-6023,2019-04-09,5330000,경상남도 통영시
도로변(유휴지),08,16,통영시,경상남도 통영시 사량면 금평리 산 55-1,경상남도 통영시 사량면 금평리 산 55-1,34.849574,128.211399,1,13890,2017-02-21,2018-12-31,없음,09:00,16:00,09:00,16:00,09:00,16:00,09:00,16:00,09:00,16:00,09:00,16:00,09:00,16:00,09:00,16:00,09:00,16:00,09:00,16:00,09:00,16:00,09:00,16:00,09:00,16:00,09:00,16:00,술,통영시청,055-650-6023,2019-04-09,5330000,경상남도 통영시
케이블카파크랜드,08,16,통영시,경상남도 통영시 도남동 291번지 외 1필지,경상남도 통영시 도남동 291번지 외 1필지,34.823892,128.423460,5,5000,2018-02-05,2020-02-04,없음,09:00,16:00,09:00,16:00,09:00,16:00,09:00,16:00,09:00,16:00,09:00,16:00,09:00,16:00,09:00,16:00,09:00,16:00,09:00,16:00,09:00,16:00,09:00,16:00,09:00,16:00,09:00,16:00,술,통영시청,055-650-6023,2019-04-09,5330000,경상남도 통영시
위덕대학교 학교주차장,06,15,경주시,"""경상북도 경주시 강동면 동해대로 261, 위덕대학교 학교주차장""",경상북도 경주시 강동면 유금리 525번지 위덕대학교 학교주차장,36.0161096535,129.282592151,,문의,2018-04-01,2019-03-30,월요일+수요일+목요일+금요일+토요일+일요일,11:00,19:00,00:00,00:00,,,,,,,,,,,,,,,,,,,,,,,,,,경주시,054-779-8596,2018-08-29,5050000,경상북도 경주시
고속도로 졸음쉼터,07,09,성남시 수정구,,경기도 성남시 수정구 수진동 산39-13,,,1,"월 300,000원",2017-10-19,2019-10-18,없음,08:00,19:00,08:00,19:00,08:00,19:00,08:00,19:00,08:00,19:00,08:00,19:00,08:00,19:00,08:00,19:00,08:00,19:00,08:00,19:00,08:00,19:00,08:00,19:00,08:00,19:00,08:00,19:00,,한국도로공사,02-2225-8425,2019-03-12,3780000,경기도 성남시
청주시차량등록사업소 주차장,08,11,흥덕구,충청북도 청주시 흥덕구 무심서로 857,충청북도 청주시 흥덕구 신봉동 491,36.6637457968,127.465813107,1,년190000원,2018-02-21,2020-02-28,토요일+일요일+공휴일,09:00,18:00,09:00,18:00,,,,,,,,,,,,,,,,,,,,,,,,,,청주시,043-201-1972,2018-08-20,5710000,충청북도 청주시
은파호수공원내조경휴게소,02,13,군산시,전라북도 군산시 지곡동 417-1 도로명주소 없음,전라북도 군산시 지곡동 417-1번지,35.9459599952,126.7060158938,1,6710,2015-10-23,2020-09-17,연중무휴,09:00,22:00,09:00,22:00,,,,,,,,,,,,,,,,,,,,,,,,,,군산시,063-454-3425,2019-04-11,4670000,전라북도 군산시
진포해양테마공원 내,08,13,군산시,전라북도 군산시 장미동 1-17 도로명주소 없음,전라북도 군산시 장미동 1-71번지,35.9881103010,126.7140301445,7,246400,2018-05-04,2019-05-03,월요일+화요일+수요일,16:00,22:00,16:00,22:00,,,,,,,,,,,,,,,,,,,,,,,,,,군산시,063-454-3425,2019-04-11,4670000,전라북도 군산시
옥도면 장자도리,08,13,군산시,전라북도 군산시 옥도면 장자도리 17 도로명주소 없음,전라북도 군산시 옥도면 장자도리 17번지,35.8123281418,126.3971808922,5,300000,2018-12-18,2021-03-31,연중무휴,09:00,22:00,09:00,22:00,,,,,,,,,,,,,,,,,,,,,,,,,,군산시,063-454-3425,2019-04-11,4670000,전라북도 군산시
옥도면 장자도리,08,13,군산시,전라북도 군산시 옥도면 장자도리 산 2-5 도로명주소 없음,전라북도 군산시 옥도면 장자도리 산 2-5번지,35.8118142323,126.3982204153,4,300000,2018-12-18,2021-03-31,연중무휴,09:00,22:00,09:00,22:00,,,,,,,,,,,,,,,,,,,,,,,,,,군산시,063-454-3425,2019-04-11,4670000,전라북도 군산시
백양공원,04,02,북구,부산광역시 북구 은행나무로 26,부산광역시 북구 만덕동 843,35.2072432019,129.037795495,1,년 141570,2017-04-01,2019-03-31,연중무휴,10:00,18:00,10:00,18:00,10:00,18:00,10:00,18:00,10:00,18:00,10:00,18:00,10:00,18:00,10:00,18:00,10:00,18:00,10:00,18:00,10:00,18:00,10:00,18:00,10:00,18:00,10:00,18:00,주류,부산광역시 북구,051-309-2051,2018-10-18,3320000,부산광역시 북구
당진시청,08,12,당진시,충청남도 당진시 시청1로1,,36.8897399814,126.645968907,1,"""연 134,000원""",2018-04-19,2020-04-18,토요일+일요일+공휴일,09:00,18:00,00:00,00:00,,,,,,,,,,,,,,,,,,,,,,,,,,당진시,041-350-3541,2018-08-22,5680000,충청남도 당진시
어름수변공원,04,12,당진시,충청남도 당진시 대덕1로 2길,,36.8847994563,126.642716203,1,"""연 134,000원""",2018-04-19,2020-04-18,평일,00:00,00:00,14:00,22:00,,,,,,,,,,,,,,,,,,,,,,,,,,당진시,041-350-3541,2018-08-22,5680000,충청남도 당진시
서해안선 당진(시흥)졸음쉼터,07,12,당진시,충청남도 당진시 송악읍 서해안고속도로 265,,36.9007506174,126.718470196,1,0원,2017-12-01,2018-11-30,연중무휴,00:00,23:59,00:00,23:59,,,,,,,,,,,,,,,,,,,,,,,,,,한국도로공사대전충남본부,042-722-6046,2018-08-22,5680000,충청남도 당진시
서해안선 당진(목포)졸음쉼터,07,12,당진시,충청남도 당진시 송악읍 서해안고속도로 265,,36.9007506174,126.718470196,1,0원,2017-12-01,2018-11-30,연중무휴,00:00,23:59,00:00,23:59,,,,,,,,,,,,,,,,,,,,,,,,,,한국도로공사대전충남본부,042-722-6046,2018-08-22,5680000,충청남도 당진시
